{"id":1,"name":"Stamm-Goldner","latitude":"14.33333","longitude":"-87.63333","contact":"504-(904)547-6476","clerk":"Evelyn Andrews"}
{"id":2,"name":"Gorczany LLC","latitude":"35.1071","longitude":"-2.74693","contact":"212-(720)404-6232","clerk":"Mary Roberts"}
{"id":3,"name":"Dicki Group","latitude":"32.88853","longitude":"119.63778","contact":"86-(651)142-5827","clerk":"Kathy Cook"}
{"id":4,"name":"Gibson-Cremin","latitude":"6.13748","longitude":"1.21227","contact":"228-(218)677-8133","clerk":"Mary Brooks"}
{"id":5,"name":"Blanda-Champlin","latitude":"42.3389","longitude":"-70.9196","contact":"1-(508)273-8013","clerk":"Matthew Bradley"}
{"id":6,"name":"Mohr Inc","latitude":"-7.15908","longitude":"113.51864","contact":"62-(844)349-8904","clerk":"Jason Stevens"}
{"id":7,"name":"Labadie-Cummings","latitude":"48.59794","longitude":"124.53609","contact":"86-(660)581-8551","clerk":"Howard Olson"}
{"id":8,"name":"McGlynn, Krajcik and Morissette","latitude":"17.31303","longitude":"121.60654","contact":"63-(497)886-8033","clerk":"Samuel Simmons"}
{"id":9,"name":"Ferry-Barton","latitude":"59.80083","longitude":"30.54778","contact":"7-(116)340-5190","clerk":"Robin Fox"}
{"id":10,"name":"Zemlak and Sons","latitude":"29.63196","longitude":"120.85588","contact":"86-(952)505-3738","clerk":"Carl Brown"}
{"id":11,"name":"Wolff-Bogisich","latitude":"-5.1275","longitude":"-39.73222","contact":"55-(177)416-8649","clerk":"Raymond Chavez"}
{"id":12,"name":"Gaylord and Sons","latitude":"-8.7215","longitude":"121.9897","contact":"62-(546)417-4553","clerk":"Ryan Johnson"}
{"id":13,"name":"Wilkinson Group","latitude":"14.00776","longitude":"0.75306","contact":"227-(574)877-6918","clerk":"Sara Green"}
{"id":14,"name":"Herzog-Barton","latitude":"32.30577","longitude":"34.90911","contact":"972-(909)774-1177","clerk":"Anne Martin"}
{"id":15,"name":"Toy, Hahn and Stracke","latitude":"7.48361","longitude":"124.94306","contact":"63-(407)733-0480","clerk":"Rebecca Dean"}
{"id":16,"name":"Huels, Rippin and Torp","latitude":"-34.38333","longitude":"-72","contact":"56-(312)104-3210","clerk":"Jessica Perkins"}
{"id":17,"name":"Mante-Becker","latitude":"26.97277","longitude":"116.59414","contact":"86-(232)336-9200","clerk":"Christina Gonzales"}
{"id":18,"name":"Ratke-Cremin","latitude":"32.41603","longitude":"119.32981","contact":"86-(979)376-9928","clerk":"Amanda Crawford"}
{"id":19,"name":"Metz, Ward and Stoltenberg","latitude":"63.8284","longitude":"20.2597","contact":"46-(297)627-6310","clerk":"Billy Thomas"}
{"id":20,"name":"Bartell and Sons","latitude":"39.49524","longitude":"67.60931","contact":"992-(470)442-0202","clerk":"Christine Riley"}
{"id":21,"name":"Padberg-McGlynn","latitude":"55.06196","longitude":"38.71384","contact":"7-(100)495-5214","clerk":"Louis Gutierrez"}
{"id":22,"name":"Lang, Grady and Cronin","latitude":"48.65803","longitude":"30.81821","contact":"380-(746)322-8301","clerk":"Fred Moore"}
{"id":23,"name":"Armstrong-Baumbach","latitude":"-6.3328","longitude":"106.0606","contact":"62-(636)361-1364","clerk":"Cheryl Vasquez"}
{"id":24,"name":"Mante, Mertz and Lind","latitude":"46.64468","longitude":"123.16577","contact":"86-(507)877-5142","clerk":"Ernest Gray"}
{"id":25,"name":"Will-Hermiston","latitude":"32.68567","longitude":"68.23801","contact":"93-(864)902-7093","clerk":"Anne Howard"}
{"id":26,"name":"Waters Inc","latitude":"45.12833","longitude":"42.02556","contact":"7-(975)862-9732","clerk":"Alan Washington"}
{"id":27,"name":"Altenwerth-Gaylord","latitude":"49.51121","longitude":"17.52829","contact":"420-(233)291-6987","clerk":"Karen Johnston"}
{"id":28,"name":"Leffler and Sons","latitude":"49.45802","longitude":"-120.51076","contact":"1-(681)190-1939","clerk":"Patrick Richards"}
{"id":29,"name":"Wuckert-Cronin","latitude":"-1.82833","longitude":"-44.86833","contact":"55-(891)369-4992","clerk":"Rachel Crawford"}
{"id":30,"name":"Lehner, Miller and Moen","latitude":"-20.496","longitude":"57.55","contact":"230-(730)182-7888","clerk":"George Cole"}
{"id":31,"name":"Veum-Murazik","latitude":"48.8925","longitude":"2.3444","contact":"33-(328)314-6593","clerk":"Eugene Weaver"}
{"id":32,"name":"Hermiston, Mueller and Medhurst","latitude":"50.8466","longitude":"4.3528","contact":"32-(561)319-1629","clerk":"Carol Cox"}
{"id":33,"name":"Bartell-McCullough","latitude":"61.1089","longitude":"-149.4403","contact":"1-(907)436-7762","clerk":"Amanda Russell"}
{"id":34,"name":"Feest LLC","latitude":"50.6607","longitude":"14.03227","contact":"420-(941)208-5212","clerk":"Charles Adams"}
{"id":35,"name":"Wiegand-West","latitude":"37.21642","longitude":"121.26354","contact":"86-(861)165-8178","clerk":"Carol Grant"}
{"id":36,"name":"Gaylord, Keeling and Kling","latitude":"-3.0526","longitude":"102.8149","contact":"62-(383)315-1626","clerk":"Sandra Rodriguez"}
{"id":37,"name":"Toy, Keebler and Klocko","latitude":"-8.1777","longitude":"111.7637","contact":"62-(329)922-7768","clerk":"Wayne Myers"}
{"id":38,"name":"Rippin, Schneider and Harvey","latitude":"47.76167","longitude":"27.92889","contact":"373-(309)413-6389","clerk":"Lisa Adams"}
{"id":39,"name":"Hackett, Lynch and Schaden","latitude":"16.09398","longitude":"103.00998","contact":"66-(497)364-7262","clerk":"Cynthia Howell"}
{"id":40,"name":"Beahan, Little and Schmeler","latitude":"27.02248","longitude":"119.0414","contact":"86-(353)629-3097","clerk":"Terry Daniels"}
{"id":41,"name":"Feeney and Sons","latitude":"34.35487","longitude":"108.73949","contact":"86-(116)129-9840","clerk":"Bonnie Simmons"}
{"id":42,"name":"Von, Roob and Gutkowski","latitude":"24.70222","longitude":"102.74417","contact":"86-(416)891-8521","clerk":"Eugene Shaw"}
{"id":43,"name":"Prohaska, Stroman and Kutch","latitude":"15.9273","longitude":"120.8437","contact":"63-(317)217-7879","clerk":"Rebecca Gomez"}
{"id":44,"name":"Nader, Ullrich and Ondricka","latitude":"-8.1335","longitude":"113.8207","contact":"62-(742)567-4986","clerk":"Katherine Stephens"}
{"id":45,"name":"Wilkinson LLC","latitude":"-16.03574","longitude":"-69.14843","contact":"591-(872)116-7359","clerk":"Deborah Bishop"}
{"id":46,"name":"Koepp-Spencer","latitude":"45.85008","longitude":"-73.76588","contact":"1-(840)800-6944","clerk":"Rose Austin"}
{"id":47,"name":"Spinka LLC","latitude":"-8.47","longitude":"118.7574","contact":"62-(878)276-2534","clerk":"Diane Davis"}
{"id":48,"name":"Lind-Streich","latitude":"10.151","longitude":"122.9978","contact":"63-(675)773-2594","clerk":"David Warren"}
{"id":49,"name":"Spencer and Sons","latitude":"7.98444","longitude":"-81.16306","contact":"507-(724)450-7013","clerk":"Frank Harris"}
{"id":50,"name":"Ratke-Stehr","latitude":"-8.23833","longitude":"-35.46167","contact":"55-(185)259-8824","clerk":"Mildred Morales"}
{"id":51,"name":"Larson-Hansen","latitude":"44.0925","longitude":"6.232","contact":"33-(711)325-3680","clerk":"William Powell"}
{"id":52,"name":"Harber and Sons","latitude":"54.11483","longitude":"20.13328","contact":"48-(804)165-6774","clerk":"Ronald Gonzales"}
{"id":53,"name":"Sauer-Schultz","latitude":"20.00073","longitude":"110.29359","contact":"86-(161)700-9449","clerk":"Eric Jenkins"}
{"id":54,"name":"Schamberger and Sons","latitude":"33.73546","longitude":"104.50018","contact":"86-(447)229-3173","clerk":"Craig Knight"}
{"id":55,"name":"Pagac-Turner","latitude":"56.11607","longitude":"88.52279","contact":"7-(832)581-4212","clerk":"Margaret Ryan"}
{"id":56,"name":"Carter-Cartwright","latitude":"15.61117","longitude":"103.99484","contact":"66-(256)381-1491","clerk":"Kevin Nguyen"}
{"id":57,"name":"Walker and Sons","latitude":"34.25611","longitude":"108.34611","contact":"86-(137)198-6674","clerk":"Frank Phillips"}
{"id":58,"name":"Bashirian, Buckridge and Hoeger","latitude":"-24.63333","longitude":"17.96667","contact":"264-(155)860-2179","clerk":"Alice Brooks"}
{"id":59,"name":"Veum, Rutherford and Heller","latitude":"-4.35202","longitude":"152.26327","contact":"675-(470)141-0096","clerk":"Ann Collins"}
{"id":60,"name":"Macejkovic LLC","latitude":"13.2693","longitude":"123.5769","contact":"63-(638)525-5177","clerk":"Bobby Miller"}
{"id":61,"name":"Schmeler-Schultz","latitude":"-6.6233","longitude":"106.4048","contact":"62-(604)955-6336","clerk":"Harold Banks"}
{"id":62,"name":"Farrell, Torp and Bashirian","latitude":"39.29148","longitude":"117.31358","contact":"86-(730)693-7767","clerk":"Julie Watson"}
{"id":63,"name":"Abernathy-Boehm","latitude":"27.08225","longitude":"111.08811","contact":"86-(484)195-3708","clerk":"Albert Phillips"}
{"id":64,"name":"Bailey-Schneider","latitude":"45.1667","longitude":"5.7167","contact":"33-(623)321-1290","clerk":"Henry Fowler"}
{"id":65,"name":"Stokes-Herman","latitude":"16.50653","longitude":"100.20497","contact":"66-(817)291-5585","clerk":"Donald Ryan"}
{"id":66,"name":"Robel, Skiles and Ortiz","latitude":"33.16092","longitude":"106.82506","contact":"86-(250)561-2782","clerk":"Marie Medina"}
{"id":67,"name":"Hermann Inc","latitude":"16.3033","longitude":"120.3758","contact":"63-(476)811-2988","clerk":"Betty Morales"}
{"id":68,"name":"McClure, Romaguera and Baumbach","latitude":"43.6043","longitude":"1.4437","contact":"33-(863)482-9987","clerk":"Carlos Snyder"}
{"id":69,"name":"Predovic-Abernathy","latitude":"47.65639","longitude":"28.04722","contact":"373-(302)585-4099","clerk":"Arthur Warren"}
{"id":70,"name":"Steuber Inc","latitude":"-6.898","longitude":"112.0875","contact":"62-(249)236-1157","clerk":"Margaret Cooper"}
{"id":71,"name":"Vandervort, Kunze and Paucek","latitude":"41.2111","longitude":"-8.3278","contact":"351-(622)205-2001","clerk":"Henry Jordan"}
{"id":72,"name":"Ferry-Bernier","latitude":"23.25838","longitude":"116.17542","contact":"86-(631)619-2699","clerk":"Carl Jackson"}
{"id":73,"name":"Kulas, Feest and Zemlak","latitude":"10.0844","longitude":"123.2592","contact":"63-(609)631-0231","clerk":"Evelyn Graham"}
{"id":74,"name":"Stanton LLC","latitude":"52.84129","longitude":"22.98119","contact":"48-(367)702-7825","clerk":"Stephen Tucker"}
{"id":75,"name":"Balistreri LLC","latitude":"44.55618","longitude":"16.73349","contact":"387-(467)632-2745","clerk":"Joseph Smith"}
{"id":76,"name":"Schultz LLC","latitude":"57.4955","longitude":"13.1108","contact":"46-(623)504-0432","clerk":"Janice Williams"}
{"id":77,"name":"Walsh and Sons","latitude":"-6.26111","longitude":"107.15278","contact":"62-(967)532-0830","clerk":"Kelly Fowler"}
{"id":78,"name":"Weissnat and Sons","latitude":"-6.8612","longitude":"106.3067","contact":"62-(773)767-2636","clerk":"Christina Watkins"}
{"id":79,"name":"DuBuque, Murray and Dickinson","latitude":"58.4615","longitude":"8.7725","contact":"47-(670)172-4374","clerk":"Robin Ortiz"}
{"id":80,"name":"Quigley, Mohr and Stiedemann","latitude":"25.09167","longitude":"117.01056","contact":"86-(459)303-3637","clerk":"Jason Fox"}
{"id":81,"name":"Paucek, Grady and Langosh","latitude":"41.09822","longitude":"120.74792","contact":"86-(188)302-5483","clerk":"Dennis Burns"}
{"id":82,"name":"Muller and Sons","latitude":"11.45584","longitude":"-85.80308","contact":"505-(605)395-7007","clerk":"Nicole Chavez"}
{"id":83,"name":"Spencer, Schaden and Glover","latitude":"63.78977","longitude":"74.52301","contact":"7-(993)371-8885","clerk":"Victor Davis"}
{"id":84,"name":"Purdy, Heathcote and Fay","latitude":"54.03876","longitude":"43.91386","contact":"7-(837)125-3837","clerk":"Sarah Taylor"}
{"id":85,"name":"Donnelly-Koss","latitude":"-6.4296","longitude":"105.935","contact":"62-(392)628-9620","clerk":"Antonio Cox"}
{"id":86,"name":"Rodriguez-Weber","latitude":"35.38972","longitude":"36.48773","contact":"963-(834)694-6491","clerk":"Joyce Carter"}
{"id":87,"name":"Turcotte, Swaniawski and Runolfsdottir","latitude":"43.37551","longitude":"16.63091","contact":"385-(556)182-3617","clerk":"Rebecca Scott"}
{"id":88,"name":"Boehm Inc","latitude":"43.32472","longitude":"21.90333","contact":"381-(586)898-9274","clerk":"Evelyn Martinez"}
{"id":89,"name":"Erdman, Leuschke and Walter","latitude":"27.15073","longitude":"115.70313","contact":"86-(650)190-9372","clerk":"Jean Barnes"}
{"id":90,"name":"Kemmer, Morar and Rosenbaum","latitude":"42.97866","longitude":"-82.40407","contact":"1-(107)470-8506","clerk":"Barbara Fernandez"}
{"id":91,"name":"McClure Inc","latitude":"5.93139","longitude":"121.10694","contact":"63-(296)621-5425","clerk":"Russell Gutierrez"}
{"id":92,"name":"Nienow and Sons","latitude":"19.396","longitude":"-99.6808","contact":"52-(111)836-4985","clerk":"Jerry Jenkins"}
{"id":93,"name":"Paucek, Stiedemann and O'Connell","latitude":"-32.31984","longitude":"-64.27752","contact":"54-(938)929-8545","clerk":"Kimberly Campbell"}
{"id":94,"name":"Satterfield and Sons","latitude":"-6.9707","longitude":"111.3203","contact":"62-(395)383-1223","clerk":"Rachel Chapman"}
{"id":95,"name":"MacGyver, Koelpin and Kilback","latitude":"41.0213","longitude":"-7.6918","contact":"351-(847)343-4568","clerk":"Alice Matthews"}
{"id":96,"name":"Reinger, Bergstrom and Predovic","latitude":"36.16667","longitude":"139.53333","contact":"81-(437)651-5712","clerk":"Victor Brooks"}
{"id":97,"name":"Hermann and Sons","latitude":"29.50889","longitude":"106.66083","contact":"86-(300)228-0218","clerk":"Pamela Cox"}
{"id":98,"name":"Wintheiser-Ratke","latitude":"63.36667","longitude":"23.48333","contact":"358-(312)241-2800","clerk":"Kathryn Bishop"}
{"id":99,"name":"Veum Inc","latitude":"50.1544","longitude":"15.46026","contact":"420-(805)519-0590","clerk":"Christina Hamilton"}
{"id":100,"name":"Carroll, Anderson and Gusikowski","latitude":"13.90224","longitude":"-61.06459","contact":"1-(877)345-6654","clerk":"Jeffrey Harper"}
{"id":101,"name":"Hahn and Sons","latitude":"43.98333","longitude":"89.06667","contact":"86-(107)345-1176","clerk":"Kevin Bishop"}
{"id":102,"name":"Tremblay Inc","latitude":"46.70969","longitude":"84.04502","contact":"86-(785)744-9377","clerk":"Theresa Reed"}
{"id":103,"name":"Barton, Dicki and Zboncak","latitude":"14.45722","longitude":"-4.9169","contact":"223-(723)945-5713","clerk":"Antonio Frazier"}
{"id":104,"name":"Hammes, Windler and Sanford","latitude":"17.36667","longitude":"-62.75","contact":"1-(331)571-5320","clerk":"Mark Garcia"}
{"id":105,"name":"Wolf, Hamill and Koch","latitude":"8.81667","longitude":"40.51667","contact":"251-(276)919-4180","clerk":"Theresa Arnold"}
{"id":106,"name":"Sanford-Thiel","latitude":"27.57733","longitude":"119.2795","contact":"86-(207)159-6140","clerk":"Nicole Ramirez"}
{"id":107,"name":"Carroll Group","latitude":"41.3089","longitude":"-73.3637","contact":"1-(203)185-5957","clerk":"Jane Rice"}
{"id":108,"name":"Reilly-Kunde","latitude":"54.65471","longitude":"32.18325","contact":"7-(955)893-3575","clerk":"Steve Andrews"}
{"id":109,"name":"Jaskolski, Harris and Flatley","latitude":"-23.55","longitude":"47.5","contact":"261-(887)437-4430","clerk":"Jimmy Alexander"}
{"id":110,"name":"Pfannerstill-Hackett","latitude":"43.36889","longitude":"16.93417","contact":"385-(784)810-5620","clerk":"Matthew Cruz"}
{"id":111,"name":"Hayes-Schuppe","latitude":"7.67395","longitude":"-5.58086","contact":"225-(772)288-4560","clerk":"Patricia Williamson"}
{"id":112,"name":"Wiegand, Wisozk and Miller","latitude":"-12.67","longitude":"-39.10194","contact":"55-(780)528-7374","clerk":"Ronald Edwards"}
{"id":113,"name":"Jerde LLC","latitude":"14.83333","longitude":"-89.15","contact":"504-(617)895-6799","clerk":"Henry Stanley"}
{"id":114,"name":"Conn-Wisoky","latitude":"11.2612","longitude":"122.4202","contact":"63-(927)688-3436","clerk":"Patrick Carr"}
{"id":115,"name":"Gerlach and Sons","latitude":"43.03834","longitude":"19.74758","contact":"382-(128)999-7553","clerk":"Donna Morales"}
{"id":116,"name":"Lind Inc","latitude":"9.15462","longitude":"-70.57604","contact":"58-(643)894-9531","clerk":"Howard Fowler"}
{"id":117,"name":"Funk LLC","latitude":"50.46657","longitude":"19.23028","contact":"48-(579)421-3639","clerk":"Jimmy Ramos"}
{"id":118,"name":"Hahn, Berge and Marquardt","latitude":"55.9167","longitude":"14.2833","contact":"46-(420)291-8378","clerk":"Ruth Lawrence"}
{"id":119,"name":"Hessel-Maggio","latitude":"9.99753","longitude":"105.6673","contact":"84-(618)773-0136","clerk":"Maria Arnold"}
{"id":120,"name":"Moen-Abernathy","latitude":"27.6705","longitude":"-82.7119","contact":"1-(727)556-6185","clerk":"Judy Elliott"}
{"id":121,"name":"D'Amore, Haley and Schinner","latitude":"-19.11639","longitude":"33.48333","contact":"258-(622)769-5029","clerk":"Mary Mccoy"}
{"id":122,"name":"Deckow LLC","latitude":"40.7417","longitude":"-7.8083","contact":"351-(117)356-2469","clerk":"Jennifer Ramirez"}
{"id":123,"name":"Blick, Gerlach and Lehner","latitude":"15.21056","longitude":"51.24556","contact":"967-(592)537-4780","clerk":"Jerry Daniels"}
{"id":124,"name":"Heidenreich and Sons","latitude":"27.90372","longitude":"89.72689","contact":"975-(110)682-4714","clerk":"Jonathan Martin"}
{"id":125,"name":"Gaylord-Watsica","latitude":"-8.08333","longitude":"-79.11667","contact":"51-(463)485-2922","clerk":"Jack Frazier"}
{"id":126,"name":"Wuckert Group","latitude":"30.2297","longitude":"115.43346","contact":"86-(846)147-7483","clerk":"Nicole Nelson"}
{"id":127,"name":"Nicolas, Shields and Kautzer","latitude":"57.4955","longitude":"13.1108","contact":"46-(156)844-2144","clerk":"Jacqueline Stone"}
{"id":128,"name":"Zulauf, Windler and Schinner","latitude":"10.06069","longitude":"-2.50192","contact":"233-(896)653-3003","clerk":"Beverly Graham"}
{"id":129,"name":"Marvin, Stracke and Herzog","latitude":"42.26667","longitude":"27.76667","contact":"359-(596)734-9434","clerk":"Adam Murray"}
{"id":130,"name":"Stiedemann, Heller and Emard","latitude":"24.14944","longitude":"116.90973","contact":"86-(217)764-0880","clerk":"Janice Grant"}
{"id":131,"name":"Koepp, Kemmer and Champlin","latitude":"-8.4657","longitude":"118.7575","contact":"62-(994)649-6984","clerk":"Keith Perez"}
{"id":132,"name":"Frami, Roberts and Klocko","latitude":"6.11284","longitude":"-75.98378","contact":"57-(901)892-6083","clerk":"Joshua Kelly"}
{"id":133,"name":"Farrell-Barrows","latitude":"40.72861","longitude":"124.78472","contact":"86-(156)200-6327","clerk":"Robin Shaw"}
{"id":134,"name":"Zieme-Ondricka","latitude":"15.57364","longitude":"108.47403","contact":"84-(871)249-6077","clerk":"Kathryn Fuller"}
{"id":135,"name":"Bradtke-Spencer","latitude":"-17.61667","longitude":"177.46667","contact":"679-(279)830-8151","clerk":"Wayne Hanson"}
{"id":136,"name":"Ritchie Inc","latitude":"18.67297","longitude":"-70.17095","contact":"1-(144)802-6615","clerk":"Julie Graham"}
{"id":137,"name":"Stroman, Mertz and Powlowski","latitude":"39.78916","longitude":"98.79039","contact":"86-(697)355-8441","clerk":"Jeffrey Mitchell"}
{"id":138,"name":"Nader, Mitchell and Doyle","latitude":"28.21971","longitude":"110.21695","contact":"86-(371)128-5860","clerk":"Johnny Green"}
{"id":139,"name":"Koch-Bashirian","latitude":"55.6759","longitude":"12.5655","contact":"45-(334)260-6399","clerk":"Brenda Rodriguez"}
{"id":140,"name":"Ullrich Group","latitude":"29.57818","longitude":"115.13741","contact":"86-(594)778-9646","clerk":"Ann Gomez"}
{"id":141,"name":"Howell, Watsica and Blick","latitude":"-8.8428","longitude":"121.0511","contact":"62-(798)507-6733","clerk":"Tammy Simmons"}
{"id":142,"name":"Collins-Dickinson","latitude":"17.96209","longitude":"97.93288","contact":"66-(289)600-1252","clerk":"Laura Barnes"}
{"id":143,"name":"Mraz LLC","latitude":"-7.0708","longitude":"108.3939","contact":"62-(935)373-5483","clerk":"Maria Morales"}
{"id":144,"name":"Bins Group","latitude":"-9.5179","longitude":"119.0844","contact":"62-(534)786-3876","clerk":"Tina Garrett"}
{"id":145,"name":"Gottlieb, DuBuque and Considine","latitude":"-7.0353","longitude":"113.9564","contact":"62-(192)808-5341","clerk":"Paul Wallace"}
{"id":146,"name":"Reinger, Romaguera and Crona","latitude":"-8.1659","longitude":"111.8378","contact":"62-(259)211-9841","clerk":"Antonio West"}
{"id":147,"name":"Kunde-Kuphal","latitude":"48.29235","longitude":"39.73921","contact":"380-(667)626-5272","clerk":"Martha Walker"}
{"id":148,"name":"Emard-Lockman","latitude":"1.87633","longitude":"32.06225","contact":"256-(260)710-0152","clerk":"Harry Roberts"}
{"id":149,"name":"Jacobi and Sons","latitude":"29.87188","longitude":"110.54848","contact":"86-(562)429-6224","clerk":"Eric Greene"}
{"id":150,"name":"Zboncak LLC","latitude":"-23.66607","longitude":"27.74477","contact":"27-(609)160-1226","clerk":"Betty Mcdonald"}
{"id":151,"name":"Heidenreich Group","latitude":"3.3644","longitude":"172.98352","contact":"686-(235)296-0561","clerk":"Jimmy Butler"}
{"id":152,"name":"Gerlach-Ankunding","latitude":"-7.02528","longitude":"-42.13111","contact":"55-(577)814-9802","clerk":"Laura Wood"}
{"id":153,"name":"Schultz Group","latitude":"34.42664","longitude":"109.26364","contact":"86-(936)464-5664","clerk":"Angela Day"}
{"id":154,"name":"Daniel-O'Reilly","latitude":"56.6616","longitude":"16.3616","contact":"46-(470)782-4468","clerk":"Antonio Arnold"}
{"id":155,"name":"Bailey and Sons","latitude":"40.36172","longitude":"116.65626","contact":"86-(794)936-0903","clerk":"Karen Cole"}
{"id":156,"name":"Denesik, Anderson and Auer","latitude":"41.3333","longitude":"-6.9667","contact":"351-(254)856-5916","clerk":"Bruce Hudson"}
{"id":157,"name":"Bradtke-Yost","latitude":"23.87649","longitude":"114.9866","contact":"86-(376)241-3379","clerk":"Samuel Castillo"}
{"id":158,"name":"Lakin and Sons","latitude":"59.3173","longitude":"18.255","contact":"46-(228)976-0198","clerk":"Matthew Shaw"}
{"id":159,"name":"Davis LLC","latitude":"23.51572","longitude":"114.70569","contact":"86-(927)380-3526","clerk":"Phillip Fields"}
{"id":160,"name":"Wehner, Zieme and Kunze","latitude":"10.74139","longitude":"123.9525","contact":"63-(920)269-1376","clerk":"Bobby Harris"}
{"id":161,"name":"Zemlak, Howe and Osinski","latitude":"37.74598","longitude":"23.9045","contact":"30-(654)440-6762","clerk":"Ernest Ward"}
{"id":162,"name":"Kohler Inc","latitude":"-8.0321","longitude":"112.7975","contact":"62-(289)136-9688","clerk":"Nicole Richardson"}
{"id":163,"name":"Durgan-Schmitt","latitude":"57.283","longitude":"55.4589","contact":"7-(587)418-2575","clerk":"Kelly Powell"}
{"id":164,"name":"Ernser Inc","latitude":"57.92778","longitude":"30.7025","contact":"7-(762)760-2717","clerk":"Lisa Myers"}
{"id":165,"name":"Breitenberg-Goodwin","latitude":"38.7717","longitude":"-9.3732","contact":"351-(964)165-5146","clerk":"Phillip Hernandez"}
{"id":166,"name":"Pacocha Group","latitude":"28.01731","longitude":"120.66595","contact":"86-(803)172-4909","clerk":"Gregory Sullivan"}
{"id":167,"name":"Oberbrunner-Feil","latitude":"33.10062","longitude":"112.04719","contact":"86-(529)792-7975","clerk":"Ronald Castillo"}
{"id":168,"name":"Luettgen Inc","latitude":"63.1667","longitude":"17.2667","contact":"46-(287)493-4121","clerk":"Brian Torres"}
{"id":169,"name":"Witting, Ferry and Howe","latitude":"-22.66167","longitude":"-50.41222","contact":"55-(948)713-6496","clerk":"Christopher Roberts"}
{"id":170,"name":"Mayert, Dare and Blanda","latitude":"22.24167","longitude":"-80.39028","contact":"53-(224)810-7326","clerk":"Susan Nichols"}
{"id":171,"name":"Prosacco and Sons","latitude":"-9.70209","longitude":"120.51406","contact":"62-(392)383-4019","clerk":"Carlos Hughes"}
{"id":172,"name":"Cruickshank, Bode and West","latitude":"0.06116","longitude":"34.28823","contact":"254-(555)359-7809","clerk":"Craig Campbell"}
{"id":173,"name":"Beatty-Padberg","latitude":"59.8962","longitude":"10.8143","contact":"47-(397)200-5648","clerk":"Alice Richardson"}
{"id":174,"name":"Grimes, Greenholt and Torphy","latitude":"24.45556","longitude":"115.85408","contact":"86-(341)986-0934","clerk":"Jane Castillo"}
{"id":175,"name":"Schiller-Leuschke","latitude":"39.5694","longitude":"2.6502","contact":"34-(227)503-8563","clerk":"Rose Phillips"}
{"id":176,"name":"Sauer, Grant and Dibbert","latitude":"32.01615","longitude":"119.84941","contact":"86-(139)185-8174","clerk":"Eugene Oliver"}
{"id":177,"name":"Leannon and Sons","latitude":"6.67342","longitude":"-3.96938","contact":"225-(502)105-3030","clerk":"Anthony Flores"}
{"id":178,"name":"Walker-Bechtelar","latitude":"26.15497","longitude":"68.65093","contact":"92-(924)302-2464","clerk":"Evelyn Brooks"}
{"id":179,"name":"Roob Inc","latitude":"47.2333","longitude":"16.6167","contact":"36-(336)815-5855","clerk":"Emily Myers"}
{"id":180,"name":"Hirthe, Mayer and Ernser","latitude":"-10.0129","longitude":"120.0453","contact":"62-(210)948-8030","clerk":"Roger Evans"}
{"id":181,"name":"Lehner LLC","latitude":"6.51944","longitude":"125.04444","contact":"63-(900)413-0792","clerk":"Christina Adams"}
{"id":182,"name":"Larson-Considine","latitude":"22.18736","longitude":"-78.91569","contact":"53-(963)832-0275","clerk":"Deborah Gardner"}
{"id":183,"name":"Kreiger-Becker","latitude":"48.91517","longitude":"17.48927","contact":"420-(242)923-4338","clerk":"Kenneth Morgan"}
{"id":184,"name":"Gaylord, Cartwright and Hackett","latitude":"51.2784","longitude":"17.98908","contact":"48-(140)983-5581","clerk":"Mildred Morales"}
{"id":185,"name":"Connelly and Sons","latitude":"-7.0991","longitude":"106.9221","contact":"62-(812)365-3112","clerk":"Steven Chapman"}
{"id":186,"name":"Parker-Stracke","latitude":"-8.2983","longitude":"113.6369","contact":"62-(291)564-1778","clerk":"Victor Baker"}
{"id":187,"name":"Steuber LLC","latitude":"35.86583","longitude":"14.515","contact":"356-(165)632-6621","clerk":"Lisa Brown"}
{"id":188,"name":"Herzog, Nolan and Wisozk","latitude":"57.4033","longitude":"14.6624","contact":"46-(602)689-6306","clerk":"Martha Rodriguez"}
{"id":189,"name":"Wiza-Willms","latitude":"43.80417","longitude":"15.64333","contact":"385-(426)878-8744","clerk":"Roy Cruz"}
{"id":190,"name":"Nicolas LLC","latitude":"32.29563","longitude":"120.60703","contact":"86-(417)476-0696","clerk":"Bonnie Peterson"}
{"id":191,"name":"Sporer Group","latitude":"8.13728","longitude":"-5.10095","contact":"225-(631)739-0689","clerk":"Stephanie Perry"}
{"id":192,"name":"Fahey-Koelpin","latitude":"52.05856","longitude":"21.04817","contact":"48-(563)774-1482","clerk":"Linda Carroll"}
{"id":193,"name":"Conn-Hackett","latitude":"57.4882","longitude":"15.8436","contact":"46-(528)686-0321","clerk":"Craig King"}
{"id":194,"name":"Pollich-D'Amore","latitude":"42.9","longitude":"71.36667","contact":"7-(866)576-2244","clerk":"Janet Knight"}
{"id":195,"name":"Romaguera, Zulauf and McCullough","latitude":"-8.9933","longitude":"117.207","contact":"62-(580)140-4068","clerk":"Nicole Reyes"}
{"id":196,"name":"Hammes LLC","latitude":"-18.81667","longitude":"49.06667","contact":"261-(918)616-4626","clerk":"Anne Pierce"}
{"id":197,"name":"Mohr Group","latitude":"38.63333","longitude":"101.1","contact":"86-(900)695-7085","clerk":"Gregory Anderson"}
{"id":198,"name":"Douglas, Zboncak and Kshlerin","latitude":"35.88333","longitude":"140.5","contact":"81-(209)781-2756","clerk":"Michelle Martinez"}
{"id":199,"name":"Nicolas, Jast and O'Conner","latitude":"26.90287","longitude":"116.21228","contact":"86-(217)259-6392","clerk":"Melissa Williamson"}
{"id":200,"name":"Dickens, Schneider and Daniel","latitude":"-21.3393","longitude":"55.4781","contact":"262-(806)653-2216","clerk":"Debra Gilbert"}
{"id":201,"name":"Dach, Rutherford and Block","latitude":"34.53834","longitude":"109.18005","contact":"86-(358)694-8539","clerk":"Terry West"}
{"id":202,"name":"Dietrich-Smith","latitude":"-6.85167","longitude":"-76.34167","contact":"51-(609)680-8098","clerk":"Jonathan Lawson"}
{"id":203,"name":"Terry-Lueilwitz","latitude":"-7.2356","longitude":"107.0083","contact":"62-(194)854-3136","clerk":"Scott Woods"}
{"id":204,"name":"Howe, Labadie and Schulist","latitude":"4.1527","longitude":"9.241","contact":"237-(826)693-3984","clerk":"Katherine Washington"}
{"id":205,"name":"Dickens Inc","latitude":"-8.2821","longitude":"111.5113","contact":"62-(320)298-1295","clerk":"Ashley Foster"}
{"id":206,"name":"Tillman and Sons","latitude":"25.32678","longitude":"113.92701","contact":"86-(555)601-6703","clerk":"Sarah Nguyen"}
{"id":207,"name":"Baumbach and Sons","latitude":"30.60153","longitude":"121.08686","contact":"86-(718)189-5151","clerk":"Matthew Ortiz"}
{"id":208,"name":"Mertz, Reichel and Lubowitz","latitude":"26.98199","longitude":"115.11081","contact":"86-(447)442-4294","clerk":"Theresa Stephens"}
{"id":209,"name":"Jakubowski Inc","latitude":"17.40438","longitude":"106.64072","contact":"84-(734)415-7902","clerk":"Wanda Austin"}
{"id":210,"name":"Konopelski Group","latitude":"28.5825","longitude":"112.35028","contact":"86-(215)800-8237","clerk":"Norma White"}
{"id":211,"name":"Murphy and Sons","latitude":"6.55687","longitude":"-75.82806","contact":"57-(866)735-5968","clerk":"Judith Wallace"}
{"id":212,"name":"Mueller and Sons","latitude":"29.20333","longitude":"121.31528","contact":"86-(373)542-6663","clerk":"James Kelley"}
{"id":213,"name":"Dicki-Herzog","latitude":"32.69256","longitude":"35.37123","contact":"972-(102)187-6990","clerk":"Howard Stone"}
{"id":214,"name":"Anderson, Nolan and Pollich","latitude":"50.37516","longitude":"13.7659","contact":"420-(926)739-5257","clerk":"Philip Green"}
{"id":215,"name":"Nader-Langosh","latitude":"35.41808","longitude":"10.99475","contact":"216-(816)788-5706","clerk":"Chris Porter"}
{"id":216,"name":"Hand and Sons","latitude":"39.9765","longitude":"-8.5841","contact":"351-(299)499-8809","clerk":"Arthur Weaver"}
{"id":217,"name":"Schinner, Mosciski and Rice","latitude":"36.22242","longitude":"69.15038","contact":"93-(230)605-9412","clerk":"Laura Fowler"}
{"id":218,"name":"Purdy and Sons","latitude":"28.3133","longitude":"105.2377","contact":"86-(376)100-2721","clerk":"Laura Morrison"}
{"id":219,"name":"Parisian-Sporer","latitude":"46.31944","longitude":"39.97111","contact":"7-(775)872-4228","clerk":"Terry Ferguson"}
{"id":220,"name":"Rowe, Pfeffer and Jones","latitude":"31.34814","longitude":"118.36132","contact":"86-(455)775-3345","clerk":"Brenda Ortiz"}
{"id":221,"name":"Purdy-Boehm","latitude":"30.60113","longitude":"119.89446","contact":"86-(912)788-7224","clerk":"Helen Oliver"}
{"id":222,"name":"Deckow Inc","latitude":"-24.885","longitude":"28.29417","contact":"27-(497)502-8820","clerk":"James Gonzales"}
{"id":223,"name":"Morar, Kertzmann and Gutmann","latitude":"-10.1557","longitude":"124.0498","contact":"62-(360)776-1802","clerk":"Linda Wood"}
{"id":224,"name":"Bartoletti, Luettgen and Romaguera","latitude":"18.8492","longitude":"110.39244","contact":"86-(649)894-7717","clerk":"Mary Wheeler"}
{"id":225,"name":"Hand, Robel and VonRueden","latitude":"38.46667","longitude":"85.63333","contact":"86-(256)968-9877","clerk":"Walter Holmes"}
{"id":226,"name":"Hilpert, Abshire and Terry","latitude":"45.9","longitude":"6.1167","contact":"33-(456)686-3257","clerk":"Dennis Montgomery"}
{"id":227,"name":"Feil LLC","latitude":"25.52644","longitude":"119.08881","contact":"86-(321)248-0291","clerk":"Nancy Edwards"}
{"id":228,"name":"Stoltenberg-Will","latitude":"15.09444","longitude":"-91.15139","contact":"502-(677)925-9751","clerk":"Carol Coleman"}
{"id":229,"name":"Ernser LLC","latitude":"-6.43831","longitude":"106.03729","contact":"62-(108)153-6305","clerk":"Ralph Carr"}
{"id":230,"name":"Walsh LLC","latitude":"-6.6794","longitude":"105.7043","contact":"62-(832)386-8219","clerk":"Amanda Rodriguez"}
{"id":231,"name":"Smitham LLC","latitude":"-36.6","longitude":"-61.75","contact":"54-(565)132-3870","clerk":"Evelyn Weaver"}
{"id":232,"name":"Gleichner, Watsica and Reichel","latitude":"-16.1","longitude":"-69.56667","contact":"51-(765)111-7888","clerk":"Janet Rice"}
{"id":233,"name":"Jaskolski Inc","latitude":"50.46408","longitude":"29.81128","contact":"380-(525)355-4739","clerk":"Nicole Ward"}
{"id":234,"name":"Smith Group","latitude":"-6.9218","longitude":"112.5058","contact":"62-(530)975-6300","clerk":"Jonathan Meyer"}
{"id":235,"name":"Marks-Blanda","latitude":"46.56165","longitude":"126.1601","contact":"86-(407)976-6288","clerk":"Catherine Jacobs"}
{"id":236,"name":"Wunsch, Homenick and Rutherford","latitude":"35.78668","longitude":"36.4726","contact":"963-(909)805-9057","clerk":"Emily Wells"}
{"id":237,"name":"Shanahan and Sons","latitude":"55.6244","longitude":"60.5076","contact":"7-(764)710-0452","clerk":"Matthew Flores"}
{"id":238,"name":"Langworth, Lynch and Krajcik","latitude":"-8.2336","longitude":"123.706","contact":"62-(644)383-3972","clerk":"David Baker"}
{"id":239,"name":"Ebert, Ledner and Becker","latitude":"40.83434","longitude":"21.58426","contact":"30-(163)296-4951","clerk":"Jacqueline Lawrence"}
{"id":240,"name":"Turner and Sons","latitude":"35.78944","longitude":"139.62333","contact":"81-(961)440-9772","clerk":"Marilyn Garrett"}
{"id":241,"name":"Kertzmann Inc","latitude":"59.4439","longitude":"18.0687","contact":"46-(540)599-1075","clerk":"Stephanie Gutierrez"}
{"id":242,"name":"Konopelski and Sons","latitude":"38.6765","longitude":"-9.0932","contact":"351-(337)479-8184","clerk":"Brenda Peterson"}
{"id":243,"name":"Hirthe-Batz","latitude":"20.6262","longitude":"-101.158","contact":"52-(133)741-1225","clerk":"Beverly Barnes"}
{"id":244,"name":"Terry, Keeling and Parker","latitude":"48.892","longitude":"2.2067","contact":"33-(755)980-3374","clerk":"Steve Bailey"}
{"id":245,"name":"Stroman and Sons","latitude":"34.45","longitude":"115.65","contact":"86-(615)432-7700","clerk":"Craig Anderson"}
{"id":246,"name":"Lynch-Hackett","latitude":"-8.6263","longitude":"116.8641","contact":"62-(716)380-6689","clerk":"Virginia Wagner"}
{"id":247,"name":"Bernhard, Bradtke and Weber","latitude":"45.33815","longitude":"20.49895","contact":"381-(140)391-2351","clerk":"Sarah Sanchez"}
{"id":248,"name":"Leannon-DuBuque","latitude":"43.15278","longitude":"18.83944","contact":"382-(922)811-5641","clerk":"Karen Hunter"}
{"id":249,"name":"Hyatt-Nitzsche","latitude":"14.896","longitude":"120.7092","contact":"63-(416)296-7520","clerk":"Helen Hansen"}
{"id":250,"name":"Hudson-Crist","latitude":"14.07417","longitude":"-90.41667","contact":"502-(184)638-9562","clerk":"Dorothy Larson"}
{"id":251,"name":"Powlowski, Effertz and Schinner","latitude":"29.74248","longitude":"106.47508","contact":"86-(875)594-7659","clerk":"Antonio Palmer"}
{"id":252,"name":"Koepp and Sons","latitude":"44.9104","longitude":"19.44916","contact":"381-(224)639-0959","clerk":"Chris Lee"}
{"id":253,"name":"Toy-Schoen","latitude":"-19.56667","longitude":"18.11667","contact":"264-(888)171-6348","clerk":"Jeremy Harper"}
{"id":254,"name":"Wilkinson-Wunsch","latitude":"44.77982","longitude":"20.20577","contact":"381-(581)537-3296","clerk":"Patrick Ramirez"}
{"id":255,"name":"Homenick, Haley and Hayes","latitude":"9.00694","longitude":"125.20944","contact":"63-(916)979-1662","clerk":"Bruce Pierce"}
{"id":256,"name":"Murphy, Kulas and Buckridge","latitude":"-13.8217","longitude":"-171.95873","contact":"685-(274)391-6149","clerk":"Stephanie Phillips"}
{"id":257,"name":"Stiedemann-Shanahan","latitude":"50.0767","longitude":"29.9177","contact":"380-(417)401-7820","clerk":"Ashley Graham"}
{"id":258,"name":"McDermott-Schuster","latitude":"49.25785","longitude":"118.10174","contact":"86-(963)752-1472","clerk":"Laura Burns"}
{"id":259,"name":"Schmidt and Sons","latitude":"32.05468","longitude":"112.12011","contact":"86-(976)544-5511","clerk":"Bruce Johnston"}
{"id":260,"name":"Corwin-Thompson","latitude":"33.8356","longitude":"-117.9132","contact":"1-(714)167-5108","clerk":"Wayne Gilbert"}
{"id":261,"name":"Conroy Inc","latitude":"21.0712","longitude":"-101.0501","contact":"52-(248)712-9589","clerk":"Roy Walker"}
{"id":262,"name":"Graham Group","latitude":"22.98278","longitude":"-82.54639","contact":"53-(544)977-9799","clerk":"Michelle Stanley"}
{"id":263,"name":"Collier LLC","latitude":"37.8312","longitude":"23.80809","contact":"30-(899)664-2828","clerk":"Rose Snyder"}
{"id":264,"name":"Russel, Emmerich and Yundt","latitude":"-7.4599","longitude":"107.9856","contact":"62-(957)953-8400","clerk":"Willie Roberts"}
{"id":265,"name":"Hartmann, Kemmer and Kris","latitude":"19.68242","longitude":"109.59596","contact":"86-(724)331-1775","clerk":"Keith Williamson"}
{"id":266,"name":"Kulas, Gerlach and Greenfelder","latitude":"45.25167","longitude":"19.83694","contact":"381-(406)471-7446","clerk":"Kimberly Berry"}
{"id":267,"name":"Boyer, Feil and Carroll","latitude":"40.58195","longitude":"44.69581","contact":"374-(433)808-2472","clerk":"Bobby Griffin"}
{"id":268,"name":"Hermiston-Cole","latitude":"38.33092","longitude":"140.97691","contact":"81-(627)754-5192","clerk":"Philip Nichols"}
{"id":269,"name":"Mante Group","latitude":"20.9897","longitude":"-101.8614","contact":"52-(463)189-2565","clerk":"Judith Banks"}
{"id":270,"name":"Crona LLC","latitude":"-32.56611","longitude":"-53.37583","contact":"55-(965)173-3685","clerk":"Angela Sanders"}
{"id":271,"name":"Feil-O'Reilly","latitude":"41.4833","longitude":"-8.2556","contact":"351-(846)281-5732","clerk":"Sara Schmidt"}
{"id":272,"name":"Vandervort and Sons","latitude":"34.34186","longitude":"108.70824","contact":"86-(364)314-8637","clerk":"Nancy Greene"}
{"id":273,"name":"Green-Powlowski","latitude":"55.63806","longitude":"37.79306","contact":"7-(780)884-3724","clerk":"Gary Garcia"}
{"id":274,"name":"Barton, Bruen and Jacobi","latitude":"33.84121","longitude":"113.26577","contact":"86-(382)994-1314","clerk":"Jean Rice"}
{"id":275,"name":"Goyette-Lueilwitz","latitude":"-15.80778","longitude":"-42.23306","contact":"55-(414)874-5384","clerk":"Albert Crawford"}
{"id":276,"name":"McLaughlin, Durgan and Hayes","latitude":"31.02056","longitude":"109.45871","contact":"86-(296)939-5782","clerk":"Joe James"}
{"id":277,"name":"Feil-Cruickshank","latitude":"21.9383","longitude":"-103.3853","contact":"52-(211)277-4072","clerk":"Jacqueline Roberts"}
{"id":278,"name":"Dach-Wehner","latitude":"-7.035","longitude":"113.5599","contact":"62-(540)167-5473","clerk":"Paul Hill"}
{"id":279,"name":"Goodwin Inc","latitude":"55.75378","longitude":"37.81885","contact":"7-(357)734-9948","clerk":"Kenneth Moreno"}
{"id":280,"name":"Rippin Group","latitude":"48.8835","longitude":"2.3219","contact":"33-(938)279-1288","clerk":"Russell Young"}
{"id":281,"name":"Carter, Schumm and Kuphal","latitude":"59.3326","longitude":"18.0649","contact":"46-(254)173-0325","clerk":"Rose Morales"}
{"id":282,"name":"Altenwerth-Boehm","latitude":"44.65","longitude":"-1.1667","contact":"33-(425)765-8996","clerk":"Stephen Willis"}
{"id":283,"name":"Christiansen Inc","latitude":"41","longitude":"-7.05","contact":"351-(408)528-7996","clerk":"Angela Moreno"}
{"id":284,"name":"Mertz-McCullough","latitude":"41.12348","longitude":"126.17631","contact":"86-(454)773-2798","clerk":"Juan Alvarez"}
{"id":285,"name":"Kulas, Schinner and Hahn","latitude":"27.85754","longitude":"68.83292","contact":"92-(421)257-3834","clerk":"Alice Carter"}
{"id":286,"name":"Jacobi Inc","latitude":"29.14183","longitude":"109.0461","contact":"86-(175)454-3016","clerk":"Jeffrey Jackson"}
{"id":287,"name":"Fahey, Boyle and Larson","latitude":"-19.52905","longitude":"45.45559","contact":"261-(996)500-9170","clerk":"Brandon Carter"}
{"id":288,"name":"Emard, Cole and Tromp","latitude":"-8.0079","longitude":"111.4541","contact":"62-(399)196-5474","clerk":"Patricia Jackson"}
{"id":289,"name":"Mueller-Kling","latitude":"4.20737","longitude":"98.01276","contact":"62-(841)651-7757","clerk":"Antonio James"}
{"id":290,"name":"Fay Group","latitude":"-26.19583","longitude":"-56.36806","contact":"595-(197)792-1687","clerk":"Jeffrey Franklin"}
{"id":291,"name":"Farrell-Harris","latitude":"12.21635","longitude":"-85.16595","contact":"505-(501)528-5661","clerk":"Susan Sims"}
{"id":292,"name":"Mitchell, Kilback and Kunze","latitude":"57.5667","longitude":"12.0833","contact":"46-(376)353-3029","clerk":"Nancy Richards"}
{"id":293,"name":"Walter, Mayert and Mann","latitude":"49.25","longitude":"4.0333","contact":"33-(178)987-4541","clerk":"Paula Webb"}
{"id":294,"name":"D'Amore, Padberg and Kilback","latitude":"66.6066","longitude":"19.8232","contact":"46-(826)251-8778","clerk":"James Grant"}
{"id":295,"name":"Strosin Inc","latitude":"39.4336","longitude":"-87.4101","contact":"1-(812)609-7107","clerk":"Thomas Parker"}
{"id":296,"name":"Torphy-Nicolas","latitude":"-8.4498","longitude":"118.7794","contact":"62-(314)796-9532","clerk":"Ashley Robinson"}
{"id":297,"name":"Metz Group","latitude":"-8.3666","longitude":"112.7135","contact":"62-(981)846-4051","clerk":"Ann Little"}
{"id":298,"name":"Cassin, Schumm and Zieme","latitude":"54.26903","longitude":"21.01453","contact":"48-(412)440-0264","clerk":"Sarah West"}
{"id":299,"name":"Feest-Walsh","latitude":"14.58333","longitude":"-91.61667","contact":"502-(283)308-6538","clerk":"Nancy Wells"}
{"id":300,"name":"Flatley, Dickens and Bauch","latitude":"53.83389","longitude":"-7.07556","contact":"353-(685)857-7770","clerk":"Ruth Cunningham"}
{"id":301,"name":"Padberg, Upton and Ward","latitude":"51.96463","longitude":"19.71565","contact":"48-(530)989-1524","clerk":"Kimberly Webb"}
{"id":302,"name":"Lueilwitz-Wunsch","latitude":"-8.51758","longitude":"179.20094","contact":"688-(280)992-2846","clerk":"Billy Meyer"}
{"id":303,"name":"Kub LLC","latitude":"-7.60046","longitude":"107.77038","contact":"62-(394)771-3577","clerk":"James Bailey"}
{"id":304,"name":"Konopelski Group","latitude":"51.30011","longitude":"-114.03528","contact":"1-(590)568-4173","clerk":"Helen Moreno"}
{"id":305,"name":"Rosenbaum, Denesik and Hirthe","latitude":"55.06196","longitude":"38.71384","contact":"7-(661)292-3332","clerk":"Judith Chapman"}
{"id":306,"name":"Runolfsson-Mohr","latitude":"7.01667","longitude":"39.98333","contact":"251-(304)913-9508","clerk":"Brian Gonzales"}
{"id":307,"name":"Witting-Eichmann","latitude":"37.28333","longitude":"140.38333","contact":"81-(485)826-9391","clerk":"Debra Martinez"}
{"id":308,"name":"Waters, Wunsch and Jacobs","latitude":"-6.7107","longitude":"111.4976","contact":"62-(408)702-3962","clerk":"John Shaw"}
{"id":309,"name":"Kihn Inc","latitude":"51.4119","longitude":"34.908","contact":"7-(831)119-7197","clerk":"Joshua Morales"}
{"id":310,"name":"O'Keefe, Kovacek and Lueilwitz","latitude":"48.0833","longitude":"7.3667","contact":"33-(999)662-0333","clerk":"Annie Russell"}
{"id":311,"name":"Rolfson-Anderson","latitude":"-7.62333","longitude":"109.14861","contact":"62-(350)745-3721","clerk":"Harry Franklin"}
{"id":312,"name":"Koch-Beatty","latitude":"48.8058","longitude":"2.4204","contact":"33-(144)176-4266","clerk":"Kathryn Fuller"}
{"id":313,"name":"Watsica and Sons","latitude":"39.0523","longitude":"-9.2297","contact":"351-(102)683-4908","clerk":"Earl Welch"}
{"id":314,"name":"Ledner Group","latitude":"-6.9021","longitude":"112.0493","contact":"62-(229)772-4880","clerk":"Joshua Mason"}
{"id":315,"name":"Vandervort LLC","latitude":"35.99175","longitude":"128.39732","contact":"82-(334)965-2770","clerk":"Arthur Robinson"}
{"id":316,"name":"Doyle LLC","latitude":"41.0167","longitude":"-7.3833","contact":"351-(416)756-2226","clerk":"Pamela Hill"}
{"id":317,"name":"Sipes LLC","latitude":"34.57111","longitude":"126.59889","contact":"82-(864)699-2272","clerk":"Joseph White"}
{"id":318,"name":"Gaylord, Anderson and Marquardt","latitude":"34.71562","longitude":"135.33199","contact":"81-(118)161-0657","clerk":"Brenda Garrett"}
{"id":319,"name":"Mosciski-Johnston","latitude":"15.79189","longitude":"120.60461","contact":"63-(930)696-2663","clerk":"Angela Ramos"}
{"id":320,"name":"O'Kon, Bernhard and Morissette","latitude":"42.54688","longitude":"72.20921","contact":"996-(993)966-7088","clerk":"Karen Perry"}
{"id":321,"name":"Maggio-Witting","latitude":"9.89863","longitude":"13.0545","contact":"234-(620)974-2060","clerk":"Paul Murray"}
{"id":322,"name":"Bruen-Kozey","latitude":"50.67944","longitude":"18.2137","contact":"48-(636)246-6217","clerk":"Lillian Turner"}
{"id":323,"name":"Champlin, Simonis and Lueilwitz","latitude":"-8.215","longitude":"114.8869","contact":"62-(888)292-4126","clerk":"Irene Banks"}
{"id":324,"name":"Sawayn Group","latitude":"24.80817","longitude":"68.60448","contact":"92-(683)638-3351","clerk":"Jessica Montgomery"}
{"id":325,"name":"Borer-Veum","latitude":"4.4978","longitude":"9.5628","contact":"237-(489)442-6647","clerk":"Elizabeth Stevens"}
{"id":326,"name":"Bosco, Gutkowski and Reichel","latitude":"-8.0526","longitude":"113.7809","contact":"62-(494)802-2476","clerk":"Alice Hansen"}
{"id":327,"name":"Dibbert-Thiel","latitude":"46.39528","longitude":"16.64389","contact":"385-(822)328-7026","clerk":"Joyce Burns"}
{"id":328,"name":"Funk-Mann","latitude":"-6.72208","longitude":"146.98469","contact":"675-(346)476-5213","clerk":"Howard Long"}
{"id":329,"name":"Gibson and Sons","latitude":"57.9167","longitude":"12.05","contact":"46-(630)255-4875","clerk":"Frances Phillips"}
{"id":330,"name":"Johnson and Sons","latitude":"56.6616","longitude":"16.3616","contact":"46-(550)475-7431","clerk":"Judy Evans"}
{"id":331,"name":"Stark and Sons","latitude":"21.84","longitude":"-78.76194","contact":"53-(579)136-5682","clerk":"Jesse Price"}
{"id":332,"name":"Prosacco, Ratke and Hermiston","latitude":"23.24981","longitude":"116.42712","contact":"86-(867)954-8823","clerk":"Martha Williams"}
{"id":333,"name":"Jacobs, Reichert and Thiel","latitude":"-0.51489","longitude":"117.01567","contact":"62-(465)728-0839","clerk":"Edward Hart"}
{"id":334,"name":"Hackett-Boyle","latitude":"36.82091","longitude":"66.45921","contact":"93-(104)736-3051","clerk":"Marie Reed"}
{"id":335,"name":"Welch-Blanda","latitude":"12.67692","longitude":"-86.57193","contact":"505-(687)668-0436","clerk":"Rebecca Turner"}
{"id":336,"name":"Gaylord-Douglas","latitude":"45.94194","longitude":"13.66779","contact":"386-(410)800-3415","clerk":"Raymond Lynch"}
{"id":337,"name":"Veum, Shanahan and Fay","latitude":"10.96667","longitude":"122.65","contact":"63-(544)678-2080","clerk":"Ryan Kelley"}
{"id":338,"name":"Lebsack-Hintz","latitude":"47.4667","longitude":"-0.55","contact":"33-(732)805-6365","clerk":"Robin Simmons"}
{"id":339,"name":"Aufderhar-Weimann","latitude":"-6.99306","longitude":"106.67472","contact":"62-(451)101-7461","clerk":"Larry Ryan"}
{"id":340,"name":"Block-Sawayn","latitude":"11.54006","longitude":"-85.69795","contact":"505-(296)229-0279","clerk":"Wayne Burton"}
{"id":341,"name":"Moen-Monahan","latitude":"39.83333","longitude":"97.73333","contact":"86-(927)590-2147","clerk":"Fred Hamilton"}
{"id":342,"name":"Lockman-Jenkins","latitude":"39.6051","longitude":"-8.2477","contact":"351-(720)798-0936","clerk":"Jerry Parker"}
{"id":343,"name":"Orn, Conn and Gerhold","latitude":"32.09678","longitude":"121.18114","contact":"86-(281)467-6287","clerk":"Daniel Harper"}
{"id":344,"name":"Lindgren, Wolff and Hirthe","latitude":"35.95353","longitude":"101.91077","contact":"86-(506)666-3857","clerk":"Andrew Lee"}
{"id":345,"name":"Nader, Reilly and Miller","latitude":"43.6043","longitude":"1.4437","contact":"33-(676)588-9882","clerk":"Joseph Phillips"}
{"id":346,"name":"Lockman Group","latitude":"-7.0771","longitude":"108.8205","contact":"62-(990)962-0229","clerk":"Earl Rivera"}
{"id":347,"name":"Wiegand, Berge and Conroy","latitude":"49.07396","longitude":"17.37938","contact":"420-(145)913-1209","clerk":"Robin Kim"}
{"id":348,"name":"Hackett and Sons","latitude":"50.74319","longitude":"18.01741","contact":"48-(200)422-2464","clerk":"Roy Burns"}
{"id":349,"name":"Pacocha-Feil","latitude":"35.6004","longitude":"-82.4918","contact":"1-(828)877-2398","clerk":"Martha Phillips"}
{"id":350,"name":"Block, Eichmann and Emard","latitude":"-8.0381","longitude":"111.3975","contact":"62-(274)811-7840","clerk":"Lois Olson"}
{"id":351,"name":"Bauch-Buckridge","latitude":"6.98333","longitude":"39.18333","contact":"251-(762)306-1639","clerk":"Brandon Collins"}
{"id":352,"name":"Buckridge and Sons","latitude":"53.9","longitude":"53.93333","contact":"7-(918)140-8855","clerk":"Walter Bowman"}
{"id":353,"name":"Miller, Rosenbaum and Collier","latitude":"11.712","longitude":"122.2922","contact":"63-(113)531-3802","clerk":"Annie Ray"}
{"id":354,"name":"Klocko-Goodwin","latitude":"41.29711","longitude":"124.12092","contact":"86-(464)340-1527","clerk":"Martha Day"}
{"id":355,"name":"Kozey Inc","latitude":"-7.5389","longitude":"108.0939","contact":"62-(110)381-2136","clerk":"Stephanie Lawrence"}
{"id":356,"name":"Lynch, Gaylord and Schoen","latitude":"52.99333","longitude":"58.10139","contact":"7-(224)211-2816","clerk":"Beverly Morales"}
{"id":357,"name":"Blanda, VonRueden and Fisher","latitude":"-8.5058","longitude":"118.6209","contact":"62-(325)850-3996","clerk":"Russell Flores"}
{"id":358,"name":"Greenholt-Turner","latitude":"34.2714","longitude":"99.19088","contact":"86-(638)889-1033","clerk":"Phyllis Cruz"}
{"id":359,"name":"Hammes Inc","latitude":"25.95995","longitude":"115.54122","contact":"86-(291)840-1788","clerk":"Tina Crawford"}
{"id":360,"name":"Romaguera, Hackett and Reilly","latitude":"46.47198","longitude":"126.05248","contact":"86-(196)670-9368","clerk":"Elizabeth Miller"}
{"id":361,"name":"Wisozk-Rowe","latitude":"53.5953","longitude":"10.0122","contact":"49-(599)720-9918","clerk":"Phillip Green"}
{"id":362,"name":"Gottlieb Inc","latitude":"51.68333","longitude":"-9.45","contact":"353-(185)458-2077","clerk":"Laura Cooper"}
{"id":363,"name":"Nader-Kihn","latitude":"38.03381","longitude":"23.82962","contact":"30-(422)553-0846","clerk":"Ruby Frazier"}
{"id":364,"name":"Auer-Spinka","latitude":"38.25759","longitude":"140.8667","contact":"81-(424)665-9994","clerk":"Paula Pierce"}
{"id":365,"name":"Wilderman-Dietrich","latitude":"31.2109","longitude":"121.54393","contact":"86-(158)345-1355","clerk":"Martin Wood"}
{"id":366,"name":"Kihn, Rohan and Schaden","latitude":"15.82976","longitude":"120.51139","contact":"63-(861)407-3478","clerk":"Keith Collins"}
{"id":367,"name":"Stark-Greenholt","latitude":"49.93476","longitude":"21.87035","contact":"48-(904)852-5808","clerk":"Jason Nelson"}
{"id":368,"name":"Kilback-Shields","latitude":"-14.21389","longitude":"-39.52278","contact":"55-(349)379-5165","clerk":"Laura Fuller"}
{"id":369,"name":"Kuhlman LLC","latitude":"18.026","longitude":"-63.04582","contact":"590-(296)120-2453","clerk":"Bobby Murray"}
{"id":370,"name":"Smith and Sons","latitude":"-7.03333","longitude":"-40.45","contact":"55-(396)659-2042","clerk":"Todd Flores"}
{"id":371,"name":"Witting-Lesch","latitude":"19.3347","longitude":"-96.6206","contact":"52-(879)795-9979","clerk":"Harry Murray"}
{"id":372,"name":"White, McDermott and Schmitt","latitude":"53.521","longitude":"30.2454","contact":"375-(462)167-5800","clerk":"Ann Harper"}
{"id":373,"name":"Braun Group","latitude":"45.6","longitude":"4.05","contact":"33-(715)107-6646","clerk":"Victor Hughes"}
{"id":374,"name":"Kreiger-Blanda","latitude":"11.41194","longitude":"125.54583","contact":"63-(530)609-2295","clerk":"Ronald Austin"}
{"id":375,"name":"Haley-Von","latitude":"17.37933","longitude":"121.83861","contact":"63-(442)665-1432","clerk":"Alice Murphy"}
{"id":376,"name":"Kohler-Crona","latitude":"40.98333","longitude":"68.9","contact":"998-(511)269-7055","clerk":"Louis Daniels"}
{"id":377,"name":"Lindgren, Strosin and Schneider","latitude":"29.9951","longitude":"115.74893","contact":"86-(882)547-9432","clerk":"Thomas Turner"}
{"id":378,"name":"McDermott Group","latitude":"34.94498","longitude":"109.35288","contact":"86-(273)793-7441","clerk":"Ralph Hart"}
{"id":379,"name":"Lesch, Legros and Roob","latitude":"35","longitude":"134.55","contact":"81-(395)443-2782","clerk":"Carolyn Dean"}
{"id":380,"name":"Lind Inc","latitude":"35.75275","longitude":"102.80726","contact":"86-(249)594-7600","clerk":"Judy Porter"}
{"id":381,"name":"Berge-Schowalter","latitude":"61.67889","longitude":"64.48194","contact":"7-(553)618-3199","clerk":"Doris White"}
{"id":382,"name":"Bogan-Hane","latitude":"41.7412","longitude":"-7.4447","contact":"351-(592)859-4931","clerk":"Willie Weaver"}
{"id":383,"name":"White, Mills and Jerde","latitude":"53.27657","longitude":"36.57334","contact":"7-(870)840-7065","clerk":"Cynthia Patterson"}
{"id":384,"name":"Mohr-Krajcik","latitude":"45.1333","longitude":"-0.6667","contact":"33-(890)404-6978","clerk":"Anne Powell"}
{"id":385,"name":"Langosh, Collier and Bednar","latitude":"30.92143","longitude":"113.90051","contact":"86-(970)663-6538","clerk":"Lisa Alexander"}
{"id":386,"name":"Sipes-Kuhn","latitude":"4.56639","longitude":"-75.75111","contact":"57-(786)634-0050","clerk":"Jerry Reyes"}
{"id":387,"name":"Hammes, Von and Little","latitude":"22.2775","longitude":"-80.5675","contact":"53-(899)134-5329","clerk":"Ashley Duncan"}
{"id":388,"name":"Mitchell Inc","latitude":"31.99289","longitude":"44.92552","contact":"964-(370)988-4915","clerk":"Billy Morgan"}
{"id":389,"name":"Waters-Shields","latitude":"54.45417","longitude":"85.40028","contact":"7-(359)997-5458","clerk":"Barbara Cruz"}
{"id":390,"name":"Crooks, Bogan and Barton","latitude":"59.3267","longitude":"14.5239","contact":"46-(409)173-3817","clerk":"Rachel Price"}
{"id":391,"name":"Bruen, Kuhn and Mraz","latitude":"-10.5775","longitude":"-75.40167","contact":"51-(688)202-0349","clerk":"Ralph Hunter"}
{"id":392,"name":"Kemmer, Murray and Metz","latitude":"37.90111","longitude":"116.74111","contact":"86-(806)688-4700","clerk":"Wayne Watson"}
{"id":393,"name":"Wolff, Bayer and Breitenberg","latitude":"68.62602","longitude":"-95.87836","contact":"1-(115)856-6584","clerk":"Andrea Larson"}
{"id":394,"name":"Lind-Rodriguez","latitude":"23.42278","longitude":"116.285","contact":"86-(648)882-8399","clerk":"Frank Garcia"}
{"id":395,"name":"Koelpin, Luettgen and Cruickshank","latitude":"40.4165","longitude":"-3.7026","contact":"34-(904)505-4952","clerk":"Patricia Bryant"}
{"id":396,"name":"Wilkinson Inc","latitude":"8.00194","longitude":"123.50944","contact":"63-(909)897-9335","clerk":"Kimberly Taylor"}
{"id":397,"name":"McGlynn Group","latitude":"58.5942","longitude":"16.1826","contact":"46-(400)782-9227","clerk":"Jean Howard"}
{"id":398,"name":"Stark, Cruickshank and Hayes","latitude":"15.33221","longitude":"102.17278","contact":"66-(921)340-8516","clerk":"Barbara Brown"}
{"id":399,"name":"Ferry-Koss","latitude":"48.8765","longitude":"2.1897","contact":"33-(242)264-9148","clerk":"Joseph Meyer"}
{"id":400,"name":"O'Connell, Rogahn and Lebsack","latitude":"49.9","longitude":"2.3","contact":"33-(687)446-1280","clerk":"Jennifer Fields"}
{"id":401,"name":"Farrell Inc","latitude":"10.18694","longitude":"-74.57528","contact":"57-(802)197-2903","clerk":"Jacqueline Ramirez"}
{"id":402,"name":"Kerluke-Stark","latitude":"-26.90967","longitude":"-49.36547","contact":"55-(596)214-7625","clerk":"Phillip Smith"}
{"id":403,"name":"Okuneva, Auer and Grant","latitude":"50.26742","longitude":"16.1148","contact":"420-(433)207-3127","clerk":"Patricia Williams"}
{"id":404,"name":"Reichel, Connelly and Mann","latitude":"-7.3781","longitude":"108.1351","contact":"62-(873)127-1178","clerk":"Howard Moreno"}
{"id":405,"name":"Jast-MacGyver","latitude":"-8.2902","longitude":"113.5421","contact":"62-(885)212-4401","clerk":"Jane King"}
{"id":406,"name":"Renner, Cartwright and Okuneva","latitude":"10.2885","longitude":"123.0922","contact":"63-(892)985-5391","clerk":"William Jones"}
{"id":407,"name":"Gulgowski, Lakin and Hansen","latitude":"50.0719","longitude":"21.8385","contact":"48-(528)590-3678","clerk":"Nicholas Vasquez"}
{"id":408,"name":"Jacobs, Dach and Willms","latitude":"-8.20111","longitude":"-35.56472","contact":"55-(666)484-0102","clerk":"Todd Russell"}
{"id":409,"name":"Kling, Schowalter and O'Kon","latitude":"19.9055","longitude":"-96.8103","contact":"52-(885)507-4565","clerk":"Samuel Peters"}
{"id":410,"name":"Feeney and Sons","latitude":"22.8081","longitude":"114.09638","contact":"86-(740)413-8620","clerk":"Todd Mitchell"}
{"id":411,"name":"Kassulke-Cronin","latitude":"13.36667","longitude":"123.7","contact":"63-(266)463-0976","clerk":"Douglas Butler"}
{"id":412,"name":"Watsica-Schmitt","latitude":"59.2","longitude":"17.7333","contact":"46-(801)924-0971","clerk":"Keith Sims"}
{"id":413,"name":"Abshire LLC","latitude":"37.3","longitude":"99","contact":"86-(135)229-8376","clerk":"Todd Spencer"}
{"id":414,"name":"Marquardt, Howe and Weissnat","latitude":"-8.1101","longitude":"112.5144","contact":"62-(336)417-5784","clerk":"Russell Jordan"}
{"id":415,"name":"Hilll, Kessler and Schoen","latitude":"46.73426","longitude":"35.64251","contact":"380-(798)187-0711","clerk":"Harold Jacobs"}
{"id":416,"name":"Casper, Lakin and Terry","latitude":"-17.35","longitude":"49.03333","contact":"261-(125)748-9733","clerk":"Ronald Perry"}
{"id":417,"name":"Gleason, Cassin and Legros","latitude":"11.2471","longitude":"10.561","contact":"234-(294)979-0085","clerk":"Wayne Larson"}
{"id":418,"name":"Lebsack-Durgan","latitude":"24.75053","longitude":"114.53304","contact":"86-(897)885-9535","clerk":"Cheryl Gibson"}
{"id":419,"name":"Bartell LLC","latitude":"6.40764","longitude":"1.88198","contact":"229-(840)575-5421","clerk":"Daniel Mitchell"}
{"id":420,"name":"Bins-Bergstrom","latitude":"33.95705","longitude":"104.64327","contact":"86-(315)203-3361","clerk":"Kathleen Murray"}
{"id":421,"name":"Walter-Morar","latitude":"13.3622","longitude":"100.98345","contact":"66-(989)727-4588","clerk":"Louise Stewart"}
{"id":422,"name":"Eichmann-Cummings","latitude":"48.2","longitude":"3.2833","contact":"33-(293)394-1695","clerk":"Martha Knight"}
{"id":423,"name":"Kris Inc","latitude":"45.08028","longitude":"14.07889","contact":"385-(424)879-6722","clerk":"Maria Grant"}
{"id":424,"name":"Schmidt-Ruecker","latitude":"-20.41889","longitude":"57.54417","contact":"230-(864)556-8612","clerk":"Linda Chavez"}
{"id":425,"name":"Kohler-Medhurst","latitude":"8.01667","longitude":"-80.98333","contact":"507-(422)137-1747","clerk":"Robin Gutierrez"}
{"id":426,"name":"Nienow LLC","latitude":"61.3037","longitude":"17.0592","contact":"46-(973)666-3642","clerk":"Phyllis Nelson"}
{"id":427,"name":"Bergnaum-Watsica","latitude":"52.19656","longitude":"21.17752","contact":"48-(787)178-9544","clerk":"Matthew Hernandez"}
{"id":428,"name":"Gutkowski, Beier and Kassulke","latitude":"33.89152","longitude":"9.79629","contact":"216-(775)545-1435","clerk":"Kathy Porter"}
{"id":429,"name":"Breitenberg, Powlowski and Kilback","latitude":"59.2333","longitude":"18.3","contact":"46-(218)784-8575","clerk":"Keith Montgomery"}
{"id":430,"name":"Kessler-Tillman","latitude":"38.6765","longitude":"-9.0932","contact":"351-(990)861-1742","clerk":"Theresa Bowman"}
{"id":431,"name":"Bosco-Mann","latitude":"40.7792","longitude":"-7.9058","contact":"351-(563)159-8838","clerk":"Julie Clark"}
{"id":432,"name":"Strosin-Hodkiewicz","latitude":"59.9127","longitude":"10.7461","contact":"47-(849)380-1627","clerk":"Phyllis Burke"}
{"id":433,"name":"Koss, Torp and Spencer","latitude":"10.20898","longitude":"123.758","contact":"63-(843)986-3807","clerk":"Gary Brooks"}
{"id":434,"name":"Davis, Hegmann and Haag","latitude":"-8.5131","longitude":"121.927","contact":"62-(850)503-8165","clerk":"Justin Howard"}
{"id":435,"name":"Friesen, Rempel and Schuster","latitude":"29.6297","longitude":"-95.4382","contact":"1-(281)463-0695","clerk":"Jacqueline Campbell"}
{"id":436,"name":"McCullough, Tromp and Effertz","latitude":"28.8947","longitude":"64.41009","contact":"92-(868)779-8435","clerk":"Patrick Ellis"}
{"id":437,"name":"Gerlach, Pollich and Klocko","latitude":"32.79335","longitude":"12.48845","contact":"218-(720)436-8747","clerk":"Michelle Fernandez"}
{"id":438,"name":"Larson-Gulgowski","latitude":"58.78811","longitude":"52.24513","contact":"7-(488)628-5844","clerk":"Henry Castillo"}
{"id":439,"name":"Koch-West","latitude":"-16.02861","longitude":"-73.17056","contact":"51-(540)980-7625","clerk":"Howard Henderson"}
{"id":440,"name":"Ondricka, Dicki and Gutmann","latitude":"34.71189","longitude":"32.8634","contact":"357-(341)390-1849","clerk":"Frances Allen"}
{"id":441,"name":"Grimes Inc","latitude":"20.5269","longitude":"-103.2886","contact":"52-(868)396-9014","clerk":"Annie Hicks"}
{"id":442,"name":"Ullrich, Corwin and Little","latitude":"41.3888","longitude":"2.159","contact":"34-(549)878-3790","clerk":"Teresa Cruz"}
{"id":443,"name":"Robel-Haley","latitude":"-24.83333","longitude":"16.98333","contact":"264-(490)663-8817","clerk":"Christina Murphy"}
{"id":444,"name":"Purdy-Ledner","latitude":"42.20194","longitude":"22.33194","contact":"389-(739)597-1372","clerk":"Kathleen Jacobs"}
{"id":445,"name":"Gleason, Effertz and Murphy","latitude":"23.97282","longitude":"109.66678","contact":"86-(780)650-2304","clerk":"David Andrews"}
{"id":446,"name":"Doyle-Zieme","latitude":"42.14389","longitude":"21.58778","contact":"389-(966)319-4737","clerk":"Willie Perkins"}
{"id":447,"name":"Mertz, Miller and Keeling","latitude":"42.96333","longitude":"126.74778","contact":"86-(629)762-6204","clerk":"Dennis Harrison"}
{"id":448,"name":"Williamson Inc","latitude":"10.85953","longitude":"-74.77386","contact":"57-(885)280-1654","clerk":"Robert Morrison"}
{"id":449,"name":"Schimmel, Schuppe and Fisher","latitude":"7.62361","longitude":"125.62528","contact":"63-(700)831-6568","clerk":"Louise Fowler"}
{"id":450,"name":"Nitzsche, Harber and Kuhic","latitude":"43.30348","longitude":"77.24085","contact":"7-(149)478-0090","clerk":"John Morales"}
{"id":451,"name":"Murphy Group","latitude":"55.7032","longitude":"61.5498","contact":"7-(902)378-4639","clerk":"Roy Garcia"}
{"id":452,"name":"Schmitt and Sons","latitude":"1.29205","longitude":"-75.51167","contact":"57-(700)819-1243","clerk":"Joan Warren"}
{"id":453,"name":"Macejkovic-Goyette","latitude":"29.21143","longitude":"114.93247","contact":"86-(674)216-0455","clerk":"Nicholas Hawkins"}
{"id":454,"name":"Prohaska and Sons","latitude":"45.7625","longitude":"106.27083","contact":"976-(775)826-1404","clerk":"Jennifer Coleman"}
{"id":455,"name":"Wisozk Inc","latitude":"50.34071","longitude":"30.42356","contact":"380-(498)624-2847","clerk":"Ruth Lopez"}
{"id":456,"name":"Witting, Dickens and Hayes","latitude":"33.70811","longitude":"130.65297","contact":"81-(774)614-3875","clerk":"Theresa Reyes"}
{"id":457,"name":"Murray and Sons","latitude":"-6.7328","longitude":"111.4675","contact":"62-(380)349-9661","clerk":"Maria Hunt"}
{"id":458,"name":"Emmerich-Schmeler","latitude":"27.3331","longitude":"91.55424","contact":"975-(909)814-9586","clerk":"Bobby Morris"}
{"id":459,"name":"Balistreri Inc","latitude":"15.08672","longitude":"120.76991","contact":"63-(153)159-2028","clerk":"Gloria Butler"}
{"id":460,"name":"Dicki, Mayert and Fadel","latitude":"-19.96778","longitude":"-44.19833","contact":"55-(854)194-9691","clerk":"Keith Tucker"}
{"id":461,"name":"Schuppe, Erdman and Strosin","latitude":"-7.2815","longitude":"108.2903","contact":"62-(457)674-7843","clerk":"Bruce Wagner"}
{"id":462,"name":"Stroman-Marvin","latitude":"-7.072","longitude":"112.4587","contact":"62-(921)851-4147","clerk":"Annie Garcia"}
{"id":463,"name":"Christiansen, Kunze and Heller","latitude":"-0.7","longitude":"37.18333","contact":"254-(253)773-3419","clerk":"Brian Reid"}
{"id":464,"name":"Muller-Buckridge","latitude":"49.83383","longitude":"19.9383","contact":"48-(346)246-2142","clerk":"Emily Graham"}
{"id":465,"name":"Schiller and Sons","latitude":"30.50419","longitude":"118.07778","contact":"86-(456)353-2918","clerk":"Chris Perry"}
{"id":466,"name":"Erdman, Haley and Sawayn","latitude":"10.9054","longitude":"123.9704","contact":"63-(920)643-3639","clerk":"Jessica Ford"}
{"id":467,"name":"Romaguera-Nader","latitude":"-6.9966","longitude":"108.6335","contact":"62-(779)634-8411","clerk":"Arthur Gomez"}
{"id":468,"name":"Schmidt, Pfeffer and Moore","latitude":"14.91893","longitude":"-17.11978","contact":"221-(591)199-6071","clerk":"Amanda Hudson"}
{"id":469,"name":"Ritchie-Nicolas","latitude":"32.58611","longitude":"120.13333","contact":"86-(933)720-2304","clerk":"Carol Mitchell"}
{"id":470,"name":"Turner-Stanton","latitude":"-13.49361","longitude":"-71.77389","contact":"51-(784)673-7274","clerk":"Julie Martinez"}
{"id":471,"name":"Schultz and Sons","latitude":"25.12825","longitude":"121.7419","contact":"886-(289)855-7274","clerk":"Jane Shaw"}
{"id":472,"name":"Daniel, Treutel and MacGyver","latitude":"33.10342","longitude":"112.94822","contact":"86-(207)615-2185","clerk":"Margaret Gray"}
{"id":473,"name":"Nicolas and Sons","latitude":"-18.05514","longitude":"-63.42821","contact":"591-(804)601-7273","clerk":"Sarah Gilbert"}
{"id":474,"name":"White-Smith","latitude":"14.55","longitude":"-86.65","contact":"504-(423)766-5805","clerk":"Betty Rivera"}
{"id":475,"name":"Kautzer Group","latitude":"5.84671","longitude":"6.15257","contact":"234-(424)435-5771","clerk":"Amanda Arnold"}
{"id":476,"name":"Schaden-Rippin","latitude":"29.365","longitude":"48.00139","contact":"965-(962)145-1156","clerk":"Ruby Castillo"}
{"id":477,"name":"Brakus, Langworth and Beatty","latitude":"41.99451","longitude":"21.58002","contact":"389-(594)566-4059","clerk":"Tammy Hall"}
{"id":478,"name":"Gorczany-Padberg","latitude":"32.20467","longitude":"120.54446","contact":"86-(535)121-6625","clerk":"Lois Weaver"}
{"id":479,"name":"Lynch, Hansen and Friesen","latitude":"29.84631","longitude":"117.80778","contact":"86-(598)536-9213","clerk":"Brandon Simmons"}
{"id":480,"name":"Marvin Inc","latitude":"6.46504","longitude":"12.62843","contact":"237-(431)167-1324","clerk":"Jerry Bishop"}
{"id":481,"name":"Weimann Inc","latitude":"-20.07306","longitude":"57.55806","contact":"230-(980)232-8759","clerk":"Jane Robertson"}
{"id":482,"name":"Homenick and Sons","latitude":"48.8642","longitude":"2.4432","contact":"33-(991)490-8650","clerk":"Sharon Wood"}
{"id":483,"name":"DuBuque, Daugherty and Hahn","latitude":"5.40867","longitude":"-73.29572","contact":"57-(570)843-0985","clerk":"Andrea Wagner"}
{"id":484,"name":"Gutkowski, Hartmann and Turcotte","latitude":"59.3833","longitude":"17.9167","contact":"46-(345)156-3730","clerk":"Fred Schmidt"}
{"id":485,"name":"Turner Inc","latitude":"27.20969","longitude":"116.13118","contact":"86-(405)823-0937","clerk":"Julia Stevens"}
{"id":486,"name":"Graham, Schoen and Kunze","latitude":"-8.1446","longitude":"112.1066","contact":"62-(125)599-6145","clerk":"Jacqueline Nichols"}
{"id":487,"name":"Botsford, Yundt and Graham","latitude":"54.03591","longitude":"19.0266","contact":"48-(848)742-9850","clerk":"Donna Edwards"}
{"id":488,"name":"Bergnaum, Raynor and Boehm","latitude":"22.9999","longitude":"113.88157","contact":"86-(158)677-3738","clerk":"Irene Sullivan"}
{"id":489,"name":"Block Group","latitude":"11.2613","longitude":"122.5364","contact":"63-(178)396-2819","clerk":"Tina Mason"}
{"id":490,"name":"Ernser Inc","latitude":"29.97696","longitude":"106.52057","contact":"86-(744)368-2623","clerk":"Doris Kim"}
{"id":491,"name":"Metz, Maggio and Runolfsson","latitude":"45.22827","longitude":"130.39676","contact":"86-(396)396-4315","clerk":"Rachel Kelly"}
{"id":492,"name":"Waters, Ward and Osinski","latitude":"-40.81345","longitude":"-62.99668","contact":"54-(228)623-6423","clerk":"Frank Berry"}
{"id":493,"name":"Frami-Baumbach","latitude":"57.88349","longitude":"25.45609","contact":"371-(767)787-1224","clerk":"Philip Carr"}
{"id":494,"name":"Quigley LLC","latitude":"53.8201","longitude":"-1.5704","contact":"44-(440)483-5367","clerk":"Lori Kelley"}
{"id":495,"name":"Ortiz Inc","latitude":"1.84966","longitude":"-76.04785","contact":"57-(585)110-2621","clerk":"Rose Robinson"}
{"id":496,"name":"Hansen, Johnston and Cassin","latitude":"19.0531","longitude":"-96.4161","contact":"52-(377)960-8250","clerk":"Joan Robertson"}
{"id":497,"name":"Bradtke and Sons","latitude":"15.91702","longitude":"120.44141","contact":"63-(386)545-2258","clerk":"Ruth Hunt"}
{"id":498,"name":"Spinka, Bauch and Schinner","latitude":"-6.4623","longitude":"105.8659","contact":"62-(122)162-5487","clerk":"Susan Stephens"}
{"id":499,"name":"Koepp and Sons","latitude":"31.08501","longitude":"114.02911","contact":"86-(880)516-6893","clerk":"Louis Powell"}
{"id":500,"name":"Hammes-Braun","latitude":"6.1194","longitude":"100.3677","contact":"60-(397)929-4769","clerk":"Amy Armstrong"}
{"id":501,"name":"Ernser, Wiegand and Pfannerstill","latitude":"49.8464","longitude":"21.89404","contact":"48-(591)722-2130","clerk":"Irene Johnson"}
{"id":502,"name":"Shields and Sons","latitude":"-26.96083","longitude":"-50.42694","contact":"55-(880)910-5405","clerk":"Bruce Arnold"}
{"id":503,"name":"Gibson, Donnelly and Swift","latitude":"41.14556","longitude":"20.24","contact":"355-(404)227-2699","clerk":"Judy Simmons"}
{"id":504,"name":"Wintheiser, Johns and Adams","latitude":"40.80456","longitude":"44.4939","contact":"374-(403)284-4426","clerk":"Randy Ryan"}
{"id":505,"name":"Kshlerin-Hilll","latitude":"48.1738","longitude":"11.5858","contact":"49-(426)977-2293","clerk":"Brandon Harper"}
{"id":506,"name":"Morissette, Ritchie and Wolf","latitude":"50.85253","longitude":"24.32364","contact":"380-(154)302-9921","clerk":"Roy Armstrong"}
{"id":507,"name":"Harber-Stokes","latitude":"-3.2186","longitude":"30.5528","contact":"257-(927)331-4837","clerk":"Mark Gray"}
{"id":508,"name":"Heller, Schmitt and Pacocha","latitude":"36.86012","longitude":"10.19337","contact":"216-(763)968-2444","clerk":"Jessica Welch"}
{"id":509,"name":"O'Conner-Eichmann","latitude":"18.75031","longitude":"-69.63525","contact":"1-(865)471-5655","clerk":"Randy Pierce"}
{"id":510,"name":"Brakus Inc","latitude":"45.38315","longitude":"38.44304","contact":"7-(893)434-0420","clerk":"George Harris"}
{"id":511,"name":"Cormier Group","latitude":"21.62254","longitude":"105.18462","contact":"84-(113)554-5718","clerk":"Russell Henderson"}
{"id":512,"name":"Haag-Bode","latitude":"41.65234","longitude":"126.14449","contact":"86-(440)583-2950","clerk":"Arthur Fisher"}
{"id":513,"name":"Jacobs-Labadie","latitude":"42.13333","longitude":"24.53333","contact":"359-(589)295-9634","clerk":"Phillip Welch"}
{"id":514,"name":"Bosco, Greenfelder and McGlynn","latitude":"44.31667","longitude":"126.8","contact":"86-(251)218-0522","clerk":"Cynthia Dunn"}
{"id":515,"name":"Kautzer, Lemke and Kshlerin","latitude":"37.3894","longitude":"-121.8868","contact":"1-(408)650-9565","clerk":"Rose Collins"}
{"id":516,"name":"Schoen, Padberg and Feil","latitude":"-10.5732","longitude":"121.7388","contact":"62-(774)759-9290","clerk":"Scott Ruiz"}
{"id":517,"name":"Lakin, Bogisich and Terry","latitude":"42.97444","longitude":"140.50889","contact":"81-(466)807-8207","clerk":"Chris Daniels"}
{"id":518,"name":"Hickle Inc","latitude":"-18.01274","longitude":"31.07555","contact":"263-(582)624-4270","clerk":"Albert Reid"}
{"id":519,"name":"Turcotte LLC","latitude":"53.7002","longitude":"102.7117","contact":"7-(392)295-7536","clerk":"Billy Walker"}
{"id":520,"name":"Cummerata Inc","latitude":"28.34521","longitude":"114.63864","contact":"86-(140)883-4480","clerk":"Angela Shaw"}
{"id":521,"name":"Satterfield, Zulauf and MacGyver","latitude":"36.22697","longitude":"101.56206","contact":"86-(589)547-1312","clerk":"Wayne Wright"}
{"id":522,"name":"Schoen LLC","latitude":"32.7466","longitude":"35.34242","contact":"972-(501)309-1159","clerk":"Jeffrey Bishop"}
{"id":523,"name":"Morissette, Emmerich and Wunsch","latitude":"25.08648","longitude":"114.44544","contact":"86-(385)786-9397","clerk":"Diane Fields"}
{"id":524,"name":"Kilback Inc","latitude":"-27.90968","longitude":"31.64817","contact":"27-(617)753-3943","clerk":"Timothy George"}
{"id":525,"name":"Dickens LLC","latitude":"29.32971","longitude":"113.69012","contact":"86-(595)979-6709","clerk":"Timothy Morgan"}
{"id":526,"name":"Gislason-Ruecker","latitude":"56.29929","longitude":"39.38304","contact":"7-(929)303-9524","clerk":"Mildred Shaw"}
{"id":527,"name":"Beer Inc","latitude":"-8.3847","longitude":"114.2778","contact":"62-(616)709-6097","clerk":"Catherine Ryan"}
{"id":528,"name":"Stiedemann, Torp and Bartoletti","latitude":"10.5229","longitude":"123.736","contact":"63-(693)871-9118","clerk":"Anne Daniels"}
{"id":529,"name":"Maggio-Harber","latitude":"40.41894","longitude":"49.96693","contact":"994-(171)574-9777","clerk":"Joe Russell"}
{"id":530,"name":"Hegmann, Barrows and McDermott","latitude":"-8.45917","longitude":"-76.46333","contact":"51-(808)270-6355","clerk":"Annie Cunningham"}
{"id":531,"name":"Zulauf-Hegmann","latitude":"52.7005","longitude":"44.5367","contact":"7-(643)681-6814","clerk":"Steven Parker"}
{"id":532,"name":"Powlowski, Hayes and Schaden","latitude":"37.4","longitude":"140.38333","contact":"81-(489)583-8417","clerk":"Lisa Pierce"}
{"id":533,"name":"Kertzmann LLC","latitude":"51.6992","longitude":"5.3042","contact":"31-(444)152-6406","clerk":"Diane Ramirez"}
{"id":534,"name":"Macejkovic, Hilpert and Mayert","latitude":"26.25","longitude":"105.93333","contact":"86-(216)480-8393","clerk":"Bonnie Peters"}
{"id":535,"name":"Rath-Mitchell","latitude":"15.34333","longitude":"-88.55139","contact":"504-(361)160-1932","clerk":"Roy Brooks"}
{"id":536,"name":"McKenzie-Kling","latitude":"31.81402","longitude":"118.56702","contact":"86-(229)769-9638","clerk":"Heather Franklin"}
{"id":537,"name":"Feeney-Bahringer","latitude":"47.65639","longitude":"28.04722","contact":"373-(819)426-8771","clerk":"Jeffrey Green"}
{"id":538,"name":"Stiedemann-Orn","latitude":"-31.42414","longitude":"-64.49778","contact":"54-(677)692-3711","clerk":"Gerald Reid"}
{"id":539,"name":"Kovacek-Kohler","latitude":"35.84763","longitude":"14.46824","contact":"356-(282)544-3707","clerk":"Mildred Medina"}
{"id":540,"name":"McCullough-Bergnaum","latitude":"23.69906","longitude":"117.42511","contact":"86-(909)732-5114","clerk":"Catherine Stone"}
{"id":541,"name":"Rau LLC","latitude":"0.20333","longitude":"32.08806","contact":"256-(391)254-4707","clerk":"Carol Campbell"}
{"id":542,"name":"Harvey-Keeling","latitude":"34.23132","longitude":"104.22301","contact":"86-(393)203-5956","clerk":"Joseph Brooks"}
{"id":543,"name":"Stamm-Gottlieb","latitude":"35.84644","longitude":"102.02655","contact":"86-(152)138-0738","clerk":"Jack Murray"}
{"id":544,"name":"Kunde, Lowe and Cummerata","latitude":"36.28333","longitude":"140.41667","contact":"81-(569)873-6593","clerk":"Justin Murphy"}
{"id":545,"name":"Kiehn LLC","latitude":"60.393","longitude":"5.3242","contact":"47-(166)637-0897","clerk":"Helen Hughes"}
{"id":546,"name":"Halvorson-Wehner","latitude":"-21.8327","longitude":"28.72882","contact":"267-(341)441-4675","clerk":"Pamela Young"}
{"id":547,"name":"Quigley, Pouros and Zemlak","latitude":"-8.2983","longitude":"114.2275","contact":"62-(807)539-0930","clerk":"Victor Duncan"}
{"id":548,"name":"Cartwright, Wuckert and Lindgren","latitude":"35.15595","longitude":"37.20908","contact":"963-(623)546-8716","clerk":"Rebecca Hayes"}
{"id":549,"name":"Howell Group","latitude":"37.0156","longitude":"-76.4332","contact":"1-(757)913-2914","clerk":"Eric Cook"}
{"id":550,"name":"Bins, Hahn and Gibson","latitude":"47.90966","longitude":"33.38044","contact":"380-(302)192-5989","clerk":"Justin Hawkins"}
{"id":551,"name":"Reilly Group","latitude":"33.1344","longitude":"113.85316","contact":"86-(809)674-9402","clerk":"Janice Hall"}
{"id":552,"name":"Olson LLC","latitude":"50.02964","longitude":"16.60059","contact":"420-(299)842-5704","clerk":"Lawrence Gibson"}
{"id":553,"name":"Sanford Group","latitude":"49.68926","longitude":"18.32762","contact":"420-(420)223-4544","clerk":"Steven Smith"}
{"id":554,"name":"Kuhic, Koch and Hilpert","latitude":"10.77028","longitude":"122.53389","contact":"63-(247)371-3069","clerk":"Billy Stevens"}
{"id":555,"name":"Deckow-Torphy","latitude":"41.69111","longitude":"60.7525","contact":"998-(566)983-7126","clerk":"Kenneth Gonzales"}
{"id":556,"name":"Mills, Weimann and Trantow","latitude":"28.41491","longitude":"120.83836","contact":"86-(340)681-5220","clerk":"Irene Watkins"}
{"id":557,"name":"Kilback and Sons","latitude":"11.199","longitude":"123.7675","contact":"63-(296)309-4848","clerk":"Jeremy Turner"}
{"id":558,"name":"Sipes-Labadie","latitude":"45.53106","longitude":"19.13205","contact":"381-(490)590-4495","clerk":"Brenda Taylor"}
{"id":559,"name":"Stoltenberg, Stoltenberg and Waelchi","latitude":"35.51483","longitude":"102.016","contact":"86-(531)492-7076","clerk":"Ruth Welch"}
{"id":560,"name":"Effertz, Steuber and Jast","latitude":"-37.78333","longitude":"175.28333","contact":"64-(797)148-7927","clerk":"Jesse Gilbert"}
{"id":561,"name":"Runte, Buckridge and Mertz","latitude":"-39.28569","longitude":"-72.2279","contact":"56-(217)264-1472","clerk":"Phillip Simmons"}
{"id":562,"name":"Rosenbaum, Mueller and Boehm","latitude":"52.71633","longitude":"21.24945","contact":"48-(269)483-5704","clerk":"Dorothy Garcia"}
{"id":563,"name":"Blick, Dare and Mertz","latitude":"28.7259","longitude":"120.83358","contact":"86-(999)109-7937","clerk":"Stephen Larson"}
{"id":564,"name":"Hansen Group","latitude":"29.86429","longitude":"107.77483","contact":"86-(734)489-8166","clerk":"Raymond Harrison"}
{"id":565,"name":"Kuvalis Inc","latitude":"13.45","longitude":"123.66667","contact":"63-(882)219-2777","clerk":"Jennifer Bowman"}
{"id":566,"name":"Bartoletti Inc","latitude":"31.46244","longitude":"121.23707","contact":"86-(834)103-5250","clerk":"Martha Gardner"}
{"id":567,"name":"Stiedemann-Skiles","latitude":"59.9127","longitude":"10.7461","contact":"47-(330)482-6640","clerk":"Anthony George"}
{"id":568,"name":"Hegmann, Conroy and Kunde","latitude":"14.00316","longitude":"109.05804","contact":"84-(125)268-0316","clerk":"Frank Bowman"}
{"id":569,"name":"Skiles-Effertz","latitude":"57.5073","longitude":"12.6946","contact":"46-(794)310-1963","clerk":"Ashley Barnes"}
{"id":570,"name":"Heaney Inc","latitude":"15.81667","longitude":"-90.28333","contact":"502-(714)779-2607","clerk":"Benjamin Sanders"}
{"id":571,"name":"Kirlin Inc","latitude":"46.27418","longitude":"15.15186","contact":"386-(150)845-5410","clerk":"Judith Weaver"}
{"id":572,"name":"Halvorson and Sons","latitude":"13.859","longitude":"123.7675","contact":"63-(142)975-9492","clerk":"Bruce Griffin"}
{"id":573,"name":"Wuckert, Conroy and Simonis","latitude":"1.00389","longitude":"33.92556","contact":"256-(858)952-8798","clerk":"Carlos Wilson"}
{"id":574,"name":"Larkin-Fisher","latitude":"-20.00639","longitude":"-45.97694","contact":"55-(970)714-7358","clerk":"Steven Dean"}
{"id":575,"name":"Maggio-Fay","latitude":"15.38989","longitude":"104.55083","contact":"66-(942)300-8684","clerk":"Carlos Peterson"}
{"id":576,"name":"Rowe LLC","latitude":"13.46804","longitude":"101.09532","contact":"66-(635)597-1252","clerk":"John Allen"}
{"id":577,"name":"Johnson Inc","latitude":"32.59026","longitude":"105.23343","contact":"86-(375)440-9149","clerk":"Harry Taylor"}
{"id":578,"name":"Corkery, Gibson and Conn","latitude":"57.6531","longitude":"14.6968","contact":"46-(465)349-3824","clerk":"James Duncan"}
{"id":579,"name":"Morar-Wunsch","latitude":"41.15969","longitude":"21.35963","contact":"389-(651)654-7642","clerk":"Timothy Ramirez"}
{"id":580,"name":"Kunze, Stehr and Powlowski","latitude":"13.48784","longitude":"106.98158","contact":"855-(899)614-1546","clerk":"Jesse Stevens"}
{"id":581,"name":"Hammes, Grimes and Murray","latitude":"34.04845","longitude":"-4.42795","contact":"212-(744)145-1872","clerk":"Shawn Washington"}
{"id":582,"name":"Pouros, Abbott and Beier","latitude":"43.44548","longitude":"45.77901","contact":"7-(745)863-2755","clerk":"Mary Chapman"}
{"id":583,"name":"Johns and Sons","latitude":"-15.80778","longitude":"-42.23306","contact":"55-(988)699-6099","clerk":"Sara Freeman"}
{"id":584,"name":"Pagac LLC","latitude":"-9.5682","longitude":"124.4853","contact":"62-(833)999-3867","clerk":"Raymond Morgan"}
{"id":585,"name":"Herman, Grant and Dicki","latitude":"33.19253","longitude":"73.14128","contact":"92-(318)169-5199","clerk":"Raymond Wells"}
{"id":586,"name":"Runolfsdottir Inc","latitude":"25.2675","longitude":"112.14389","contact":"86-(945)123-0861","clerk":"Wanda Perkins"}
{"id":587,"name":"Shanahan Inc","latitude":"45.33333","longitude":"97.98333","contact":"976-(832)495-7105","clerk":"Jennifer Gonzales"}
{"id":588,"name":"Leuschke, VonRueden and Hand","latitude":"-7.3231","longitude":"108.1897","contact":"62-(443)456-7539","clerk":"Kathryn Jenkins"}
{"id":589,"name":"Hackett, Renner and Lindgren","latitude":"52.30447","longitude":"85.0785","contact":"7-(599)592-6006","clerk":"Stephanie Mitchell"}
{"id":590,"name":"Kuhn Inc","latitude":"40.77322","longitude":"122.37415","contact":"86-(602)601-7702","clerk":"Eugene Hill"}
{"id":591,"name":"Leannon-Hayes","latitude":"39.6667","longitude":"-7.65","contact":"351-(643)946-6731","clerk":"Chris Robertson"}
{"id":592,"name":"Fadel-Schmidt","latitude":"24.00851","longitude":"115.359","contact":"86-(867)754-0387","clerk":"Norma Martin"}
{"id":593,"name":"Pagac Inc","latitude":"49.82791","longitude":"21.99772","contact":"48-(516)887-3250","clerk":"Christina Kelly"}
{"id":594,"name":"Franecki and Sons","latitude":"-7.9","longitude":"-78.58333","contact":"51-(656)323-0065","clerk":"Diane Riley"}
{"id":595,"name":"McClure, Ortiz and Rice","latitude":"60.21209","longitude":"24.72756","contact":"358-(529)233-1289","clerk":"Peter Henry"}
{"id":596,"name":"Kassulke-Fahey","latitude":"29.90284","longitude":"112.55037","contact":"86-(102)470-8290","clerk":"Brian Richards"}
{"id":597,"name":"Schulist, Schmidt and Weissnat","latitude":"40.6955","longitude":"-8.5984","contact":"351-(924)760-5833","clerk":"Joe Reynolds"}
{"id":598,"name":"Lakin, Douglas and Hackett","latitude":"28.76064","longitude":"116.01677","contact":"86-(356)756-9634","clerk":"William Collins"}
{"id":599,"name":"McGlynn, Wintheiser and Sipes","latitude":"37.1369","longitude":"-8.0349","contact":"351-(646)594-0605","clerk":"Albert Gray"}
{"id":600,"name":"Wisoky, Marquardt and Gaylord","latitude":"41.5333","longitude":"-6.2333","contact":"351-(462)471-0853","clerk":"Arthur Harper"}
{"id":601,"name":"Quitzon, Deckow and Farrell","latitude":"12.22484","longitude":"21.41034","contact":"235-(347)884-4141","clerk":"Sharon Bailey"}
{"id":602,"name":"Paucek Inc","latitude":"35.32626","longitude":"25.2774","contact":"30-(381)527-9128","clerk":"Peter Gordon"}
{"id":603,"name":"Stoltenberg-Quitzon","latitude":"-6.8396","longitude":"111.5043","contact":"62-(352)124-3781","clerk":"Antonio Weaver"}
{"id":604,"name":"Abshire-Nienow","latitude":"34.24256","longitude":"101.11973","contact":"86-(339)702-3144","clerk":"Dennis Foster"}
{"id":605,"name":"Labadie, Fadel and Hammes","latitude":"41.62933","longitude":"42.39171","contact":"995-(768)135-1498","clerk":"Justin Andrews"}
{"id":606,"name":"Hermann Group","latitude":"6.1194","longitude":"100.3677","contact":"60-(371)110-1395","clerk":"Clarence Howell"}
{"id":607,"name":"Zulauf-Hettinger","latitude":"49.21017","longitude":"15.9883","contact":"420-(778)269-9961","clerk":"Justin Mitchell"}
{"id":608,"name":"McCullough-Wunsch","latitude":"43.68341","longitude":"-79.76633","contact":"1-(633)489-0301","clerk":"Dennis West"}
{"id":609,"name":"Klein, Langosh and Crist","latitude":"32.36815","longitude":"119.533","contact":"86-(485)550-9206","clerk":"Henry Wells"}
{"id":610,"name":"Jacobi, Schmeler and Raynor","latitude":"40.90621","longitude":"24.70726","contact":"30-(727)856-8401","clerk":"George Ferguson"}
{"id":611,"name":"Lind and Sons","latitude":"-7.2269","longitude":"111.4706","contact":"62-(185)672-4678","clerk":"Earl Hayes"}
{"id":612,"name":"Bruen-Connelly","latitude":"61.8288","longitude":"16.0913","contact":"46-(402)629-7416","clerk":"Brenda Hamilton"}
{"id":613,"name":"Bayer-Green","latitude":"28.74552","longitude":"115.85878","contact":"86-(886)219-7847","clerk":"Dorothy Henry"}
{"id":614,"name":"White-Pagac","latitude":"53.42894","longitude":"14.55302","contact":"48-(443)263-5723","clerk":"Phillip Patterson"}
{"id":615,"name":"Rutherford-Zemlak","latitude":"13.64172","longitude":"100.83272","contact":"66-(792)665-2769","clerk":"Cynthia Lee"}
{"id":616,"name":"Effertz-Klein","latitude":"-3.99313","longitude":"-79.20422","contact":"593-(221)706-6880","clerk":"Annie Matthews"}
{"id":617,"name":"Hayes-Prohaska","latitude":"16.14653","longitude":"-13.50474","contact":"222-(285)736-5229","clerk":"Philip Henry"}
{"id":618,"name":"O'Keefe-O'Hara","latitude":"40.78197","longitude":"21.40981","contact":"30-(945)341-2635","clerk":"Rebecca Arnold"}
{"id":619,"name":"Heaney-Skiles","latitude":"6.1194","longitude":"100.3677","contact":"60-(819)924-7031","clerk":"Sara Young"}
{"id":620,"name":"Marks Group","latitude":"27.27168","longitude":"115.11867","contact":"86-(881)183-4721","clerk":"Sharon Nelson"}
{"id":621,"name":"Krajcik, Dooley and Kirlin","latitude":"-8.3169","longitude":"122.7907","contact":"62-(227)183-4998","clerk":"Deborah Hicks"}
{"id":622,"name":"MacGyver-Simonis","latitude":"43.6043","longitude":"1.4437","contact":"33-(252)451-6006","clerk":"Jason Gray"}
{"id":623,"name":"Stracke, Schultz and Pollich","latitude":"22.79856","longitude":"39.03493","contact":"966-(283)659-4681","clerk":"Louis Bell"}
{"id":624,"name":"Wolf-Macejkovic","latitude":"10.46314","longitude":"-73.25322","contact":"57-(582)578-7691","clerk":"Mildred Wells"}
{"id":625,"name":"Sauer-McKenzie","latitude":"40.43492","longitude":"21.90609","contact":"30-(620)144-7208","clerk":"Mark Parker"}
{"id":626,"name":"Kessler Inc","latitude":"-3.1799","longitude":"104.03347","contact":"62-(837)723-9328","clerk":"Samuel Hamilton"}
{"id":627,"name":"Runte-Schultz","latitude":"-6.6161","longitude":"105.8889","contact":"62-(945)237-7074","clerk":"Brandon Ramirez"}
{"id":628,"name":"Purdy-Jast","latitude":"40.49182","longitude":"50.14292","contact":"994-(631)686-9967","clerk":"Carlos Baker"}
{"id":629,"name":"O'Keefe Group","latitude":"30.29526","longitude":"122.19794","contact":"86-(128)680-7683","clerk":"Roy Phillips"}
{"id":630,"name":"Schuppe, Mohr and Lesch","latitude":"37.45676","longitude":"121.61002","contact":"86-(598)312-6542","clerk":"Christina Morris"}
{"id":631,"name":"Corwin LLC","latitude":"47.525","longitude":"19.0766","contact":"36-(433)629-2916","clerk":"Joshua Moore"}
{"id":632,"name":"Corkery and Sons","latitude":"7.77768","longitude":"100.32134","contact":"66-(709)771-1647","clerk":"Nancy Washington"}
{"id":633,"name":"Volkman-Torphy","latitude":"39.36389","longitude":"117.06028","contact":"86-(649)899-6107","clerk":"Harold Mendoza"}
{"id":634,"name":"Kertzmann Group","latitude":"50.03339","longitude":"-66.86545","contact":"1-(685)905-1468","clerk":"Nicole Wilson"}
{"id":635,"name":"Conroy, West and Erdman","latitude":"51.38941","longitude":"22.18637","contact":"48-(287)736-2553","clerk":"Michael Carroll"}
{"id":636,"name":"Langworth, Bruen and Gusikowski","latitude":"57.86418","longitude":"47.11714","contact":"7-(152)233-1650","clerk":"Susan Watson"}
{"id":637,"name":"Walker-Wolff","latitude":"26.6436","longitude":"-101.3138","contact":"52-(910)114-3021","clerk":"Jennifer Austin"}
{"id":638,"name":"Nitzsche-Borer","latitude":"54.72436","longitude":"37.17272","contact":"7-(873)371-7172","clerk":"Barbara Kelly"}
{"id":639,"name":"Veum and Sons","latitude":"52.25443","longitude":"21.03472","contact":"48-(425)258-2844","clerk":"Andrea Ward"}
{"id":640,"name":"Dare and Sons","latitude":"57.9303","longitude":"12.5334","contact":"46-(706)336-4911","clerk":"Carlos Perkins"}
{"id":641,"name":"Marvin-Bayer","latitude":"18.61934","longitude":"109.26655","contact":"86-(204)263-3600","clerk":"Anna Miller"}
{"id":642,"name":"Wintheiser-Flatley","latitude":"-30.74485","longitude":"-59.64566","contact":"54-(115)791-3827","clerk":"Gregory Torres"}
{"id":643,"name":"Bayer-Ratke","latitude":"43.88778","longitude":"22.52139","contact":"359-(431)472-0069","clerk":"Theresa Powell"}
{"id":644,"name":"Powlowski, Terry and Franecki","latitude":"14.76667","longitude":"-89.43333","contact":"502-(712)324-6451","clerk":"Albert Mills"}
{"id":645,"name":"Berge, Bartoletti and Leannon","latitude":"-44.04992","longitude":"-70.59798","contact":"54-(504)536-0778","clerk":"Judy Kennedy"}
{"id":646,"name":"Lehner, Schowalter and Ondricka","latitude":"28.54875","longitude":"109.37733","contact":"86-(110)401-0091","clerk":"Sara Gibson"}
{"id":647,"name":"Jacobi-Bartoletti","latitude":"28.71732","longitude":"116.80152","contact":"86-(786)161-6488","clerk":"Marie Dixon"}
{"id":648,"name":"Larson Group","latitude":"6.72028","longitude":"124.055","contact":"63-(394)887-1991","clerk":"Jerry Reed"}
{"id":649,"name":"Zieme, Boehm and Hills","latitude":"4.81367","longitude":"-74.35453","contact":"57-(384)599-9052","clerk":"Catherine Morgan"}
{"id":650,"name":"Wisozk LLC","latitude":"14.6","longitude":"-91.6","contact":"502-(859)636-4288","clerk":"Patrick Jackson"}
{"id":651,"name":"Ward Inc","latitude":"50.7633","longitude":"37.86402","contact":"7-(968)206-3178","clerk":"Tammy Lane"}
{"id":652,"name":"Stroman, Kris and Fay","latitude":"19.93264","longitude":"-72.72167","contact":"509-(130)870-0617","clerk":"Theresa Rivera"}
{"id":653,"name":"Rodriguez, Watsica and Franecki","latitude":"13.6588","longitude":"124.37","contact":"63-(807)133-7849","clerk":"Helen Williamson"}
{"id":654,"name":"Willms and Sons","latitude":"31.06262","longitude":"-6.5525","contact":"212-(424)316-9230","clerk":"Raymond Taylor"}
{"id":655,"name":"Windler-Collier","latitude":"37.07833","longitude":"115.94139","contact":"86-(301)476-0249","clerk":"Samuel Weaver"}
{"id":656,"name":"Kshlerin, Luettgen and Senger","latitude":"49.35128","longitude":"18.24006","contact":"420-(739)346-7779","clerk":"Michael Fernandez"}
{"id":657,"name":"Smith Group","latitude":"58.7097","longitude":"13.8237","contact":"46-(631)843-1485","clerk":"Bobby Baker"}
{"id":658,"name":"Ernser-West","latitude":"49.64668","longitude":"21.67156","contact":"48-(445)704-0414","clerk":"Julia Gray"}
{"id":659,"name":"White and Sons","latitude":"-3.78514","longitude":"103.54279","contact":"62-(684)168-1182","clerk":"Christine James"}
{"id":660,"name":"Langosh, Doyle and Donnelly","latitude":"35.16667","longitude":"136.71667","contact":"81-(336)842-5716","clerk":"Henry Smith"}
{"id":661,"name":"Bartoletti, McCullough and Steuber","latitude":"41.5","longitude":"-8.2278","contact":"351-(891)507-1391","clerk":"Aaron Gardner"}
{"id":662,"name":"Boyle Inc","latitude":"7.048","longitude":"79.8937","contact":"94-(555)873-8859","clerk":"Eric Weaver"}
{"id":663,"name":"Brekke-Mayer","latitude":"34.61667","longitude":"135.6","contact":"81-(970)739-7955","clerk":"Pamela Warren"}
{"id":664,"name":"O'Hara, Mann and Torp","latitude":"36.89333","longitude":"27.28889","contact":"30-(297)627-5876","clerk":"Steven Olson"}
{"id":665,"name":"Koepp, Hayes and Gusikowski","latitude":"-2.85","longitude":"33.08333","contact":"255-(623)232-0183","clerk":"Jose Gilbert"}
{"id":666,"name":"Wintheiser LLC","latitude":"40.81943","longitude":"49.46787","contact":"994-(435)781-9136","clerk":"Annie Mitchell"}
{"id":667,"name":"Swift, Block and Grimes","latitude":"27.0454","longitude":"-101.6912","contact":"52-(465)393-5719","clerk":"Tina Martin"}
{"id":668,"name":"Gleichner-Rutherford","latitude":"11.07417","longitude":"-68.85604","contact":"58-(461)860-9494","clerk":"Juan Owens"}
{"id":669,"name":"Grimes-Hahn","latitude":"64.8357","longitude":"20.9845","contact":"46-(832)740-3182","clerk":"Patrick Wheeler"}
{"id":670,"name":"Waelchi, Powlowski and Sporer","latitude":"-3.49194","longitude":"31.96389","contact":"255-(138)907-1835","clerk":"Paul Carter"}
{"id":671,"name":"Prohaska, Walker and Walker","latitude":"-17.29972","longitude":"-48.27944","contact":"55-(246)612-6737","clerk":"Matthew Day"}
{"id":672,"name":"Dibbert, Johnson and Hermann","latitude":"36.0777","longitude":"-79.9086","contact":"1-(336)494-3103","clerk":"Joshua Greene"}
{"id":673,"name":"Keeling Group","latitude":"50.87841","longitude":"26.45192","contact":"380-(652)905-6401","clerk":"Wayne Morales"}
{"id":674,"name":"Haley Group","latitude":"28.76722","longitude":"112.35694","contact":"86-(696)484-2419","clerk":"Patricia Morrison"}
{"id":675,"name":"Hirthe, Gibson and Considine","latitude":"-2.22622","longitude":"-80.85872","contact":"593-(405)618-9383","clerk":"Sandra Williams"}
{"id":676,"name":"Gaylord-Olson","latitude":"7.5825","longitude":"122.83056","contact":"63-(453)323-0362","clerk":"Beverly Diaz"}
{"id":677,"name":"Herman, Maggio and Donnelly","latitude":"16.96667","longitude":"-89.91667","contact":"502-(406)629-2401","clerk":"Randy Anderson"}
{"id":678,"name":"Koss, Wilderman and Fisher","latitude":"24.11962","longitude":"115.79056","contact":"86-(537)674-9625","clerk":"Lisa Harrison"}
{"id":679,"name":"Hermiston, Hickle and Jerde","latitude":"34.2969","longitude":"48.8235","contact":"98-(541)437-2039","clerk":"Doris Bailey"}
{"id":680,"name":"Barrows-Bogan","latitude":"37.5242","longitude":"-77.4932","contact":"1-(804)595-6260","clerk":"Christopher Carter"}
{"id":681,"name":"Dicki LLC","latitude":"41.2741","longitude":"-8.5481","contact":"351-(178)838-8574","clerk":"William Howard"}
{"id":682,"name":"Larkin-Langworth","latitude":"41.5333","longitude":"-8.6167","contact":"351-(528)386-4224","clerk":"Jessica Williamson"}
{"id":683,"name":"Wiza-Kohler","latitude":"39.6333","longitude":"-8.4833","contact":"351-(388)114-2427","clerk":"Lois Howard"}
{"id":684,"name":"Brakus Inc","latitude":"5.8456","longitude":"118.0571","contact":"60-(876)405-5874","clerk":"Martin Brown"}
{"id":685,"name":"Reilly Group","latitude":"25.47123","longitude":"116.45812","contact":"86-(626)948-1302","clerk":"Rose Thompson"}
{"id":686,"name":"Legros, Schimmel and Langworth","latitude":"36.84757","longitude":"11.09386","contact":"216-(264)348-7289","clerk":"Amanda Garrett"}
{"id":687,"name":"Kirlin-Mills","latitude":"41.2075","longitude":"-8.583","contact":"351-(447)804-8972","clerk":"Deborah Mendoza"}
{"id":688,"name":"Torp, Prosacco and Gulgowski","latitude":"43.84028","longitude":"113.71556","contact":"86-(518)444-1931","clerk":"Emily Bennett"}
{"id":689,"name":"Ryan, Bins and Kirlin","latitude":"-10.86667","longitude":"39.45","contact":"255-(472)235-2706","clerk":"Beverly Franklin"}
{"id":690,"name":"Stark-Murphy","latitude":"14.53417","longitude":"-91.50333","contact":"502-(771)604-5895","clerk":"Mary Berry"}
{"id":691,"name":"Kessler Group","latitude":"-8.1947","longitude":"114.9181","contact":"62-(699)363-2672","clerk":"Janet Turner"}
{"id":692,"name":"Leffler, Torp and Quigley","latitude":"23.76992","longitude":"116.67166","contact":"86-(834)263-9506","clerk":"Mary Reed"}
{"id":693,"name":"Harber, Moore and Lesch","latitude":"43.1167","longitude":"5.9333","contact":"33-(382)461-6558","clerk":"Jeremy Williamson"}
{"id":694,"name":"Ortiz-Casper","latitude":"39.02972","longitude":"26.44833","contact":"30-(524)392-6761","clerk":"Robin Chavez"}
{"id":695,"name":"Hills-Zboncak","latitude":"62.43333","longitude":"29.96667","contact":"358-(749)405-1628","clerk":"Joan Allen"}
{"id":696,"name":"Hyatt, Runolfsson and Welch","latitude":"-7.0406","longitude":"113.5349","contact":"62-(249)537-0803","clerk":"Nicole Lawrence"}
{"id":697,"name":"Hermann-Wyman","latitude":"7.604","longitude":"126.1298","contact":"63-(746)627-5060","clerk":"Edward Wilson"}
{"id":698,"name":"Feeney, Price and Beer","latitude":"35.10022","longitude":"33.86155","contact":"357-(477)289-5948","clerk":"Alice Daniels"}
{"id":699,"name":"Schowalter, Aufderhar and Bosco","latitude":"37.48464","longitude":"122.03134","contact":"86-(335)745-8190","clerk":"Kimberly Peterson"}
{"id":700,"name":"Kulas-Murray","latitude":"-7.70623","longitude":"114.00976","contact":"62-(240)479-4404","clerk":"Ronald Howell"}
{"id":701,"name":"Considine and Sons","latitude":"-27.95124","longitude":"-58.80542","contact":"54-(784)695-2668","clerk":"Steve Berry"}
{"id":702,"name":"Brekke-Luettgen","latitude":"55.00138","longitude":"39.07997","contact":"7-(540)813-0212","clerk":"Joe Crawford"}
{"id":703,"name":"Gislason-Turcotte","latitude":"-7.1432","longitude":"114.3603","contact":"62-(435)118-0618","clerk":"Louise Spencer"}
{"id":704,"name":"Lueilwitz and Sons","latitude":"-7.0122","longitude":"108.3928","contact":"62-(307)739-6264","clerk":"Patricia Rogers"}
{"id":705,"name":"Waelchi, Muller and Brown","latitude":"-3.8445","longitude":"119.8173","contact":"62-(559)744-9307","clerk":"Martha Murray"}
{"id":706,"name":"Ratke and Sons","latitude":"-27.60816","longitude":"-61.34441","contact":"54-(821)413-9744","clerk":"Philip Lee"}
{"id":707,"name":"Kreiger-Konopelski","latitude":"-21.92194","longitude":"-50.73389","contact":"55-(524)354-9347","clerk":"Roger Fowler"}
{"id":708,"name":"O'Connell-Tillman","latitude":"27.7425","longitude":"108.34333","contact":"86-(696)876-1178","clerk":"Michael Wells"}
{"id":709,"name":"Price-Rath","latitude":"37.29721","longitude":"95.51478","contact":"86-(475)311-5047","clerk":"Jack Sims"}
{"id":710,"name":"Roberts and Sons","latitude":"-6.8041","longitude":"105.8639","contact":"62-(628)814-2768","clerk":"Joseph Reynolds"}
{"id":711,"name":"Nienow, Wyman and Strosin","latitude":"28.56833","longitude":"106.10255","contact":"86-(271)466-0422","clerk":"Deborah Perry"}
{"id":712,"name":"Kovacek-Stokes","latitude":"-9.31286","longitude":"125.25648","contact":"670-(931)335-6424","clerk":"Robert Murray"}
{"id":713,"name":"Herzog, Will and Kozey","latitude":"6.18683","longitude":"125.13684","contact":"63-(598)714-8755","clerk":"Johnny Peterson"}
{"id":714,"name":"McGlynn LLC","latitude":"-18.93149","longitude":"27.80696","contact":"263-(468)139-3644","clerk":"Chris Hawkins"}
{"id":715,"name":"Rutherford LLC","latitude":"-31.34377","longitude":"-64.33529","contact":"54-(725)690-0002","clerk":"Judy Webb"}
{"id":716,"name":"Hintz Group","latitude":"37.73806","longitude":"120.61462","contact":"86-(538)506-0149","clerk":"Joseph Chavez"}
{"id":717,"name":"Cummings LLC","latitude":"-17.91667","longitude":"15.95","contact":"264-(717)951-1527","clerk":"Rebecca Murphy"}
{"id":718,"name":"Kozey-Yost","latitude":"57.721","longitude":"12.9401","contact":"46-(325)705-1698","clerk":"Ruby Greene"}
{"id":719,"name":"Gleason and Sons","latitude":"40.8265","longitude":"-73.9383","contact":"1-(212)467-1446","clerk":"Steve Berry"}
{"id":720,"name":"Trantow, Dach and Breitenberg","latitude":"27.1865","longitude":"56.2808","contact":"98-(382)296-8846","clerk":"Clarence Moore"}
{"id":721,"name":"Gerlach, O'Connell and Yundt","latitude":"29.706","longitude":"107.39575","contact":"86-(175)158-6671","clerk":"Brian Harris"}
{"id":722,"name":"Kiehn, Wehner and Deckow","latitude":"38.93417","longitude":"100.45167","contact":"86-(787)771-5668","clerk":"Margaret Bennett"}
{"id":723,"name":"Huels, Flatley and Jacobs","latitude":"36.14666","longitude":"106.5101","contact":"86-(868)599-7656","clerk":"Jonathan Bell"}
{"id":724,"name":"Adams-Kilback","latitude":"15.64453","longitude":"44.47337","contact":"967-(163)235-6174","clerk":"Craig Stephens"}
{"id":725,"name":"Kuhic Inc","latitude":"51.30011","longitude":"-114.03528","contact":"1-(443)166-4973","clerk":"Kenneth Evans"}
{"id":726,"name":"Abbott, Streich and Lind","latitude":"50.39189","longitude":"18.1368","contact":"48-(367)417-7687","clerk":"Virginia Hansen"}
{"id":727,"name":"Emard-Gleichner","latitude":"30.83945","longitude":"115.62886","contact":"86-(368)758-5341","clerk":"Antonio Washington"}
{"id":728,"name":"Armstrong, Walker and Beatty","latitude":"40.303","longitude":"-76.8862","contact":"1-(717)577-6357","clerk":"Chris Fuller"}
{"id":729,"name":"Lockman-Berge","latitude":"36.81806","longitude":"10.305","contact":"216-(240)385-3564","clerk":"Evelyn Fields"}
{"id":730,"name":"Price Group","latitude":"43.03667","longitude":"44.66778","contact":"7-(311)922-0518","clerk":"Andrew Jacobs"}
{"id":731,"name":"Stehr, Stehr and Klocko","latitude":"48.0889","longitude":"-1.6152","contact":"33-(927)824-9389","clerk":"Jimmy Chavez"}
{"id":732,"name":"Mante-Labadie","latitude":"-14.26667","longitude":"50.16667","contact":"261-(900)371-7695","clerk":"Emily Hamilton"}
